_id,Category,Supporting Ministry,Community,Project,Status,Target Completion Date,Description,Result,Area,Address,Postal Code,Highway / Transit Line,Estimated Total Budget,Municipal Funding,Provincial Funding,Federal Funding,Other Funding,Website,Latitude,Longitude,Geometry
1,Communities,Attorney General,Fort Frances,Fort Frances Courthouse - Security  Improvements,Planning,September 2024,Creating single point of entry for all courthouse users and upgrading security equipment,Improved security as all courthouse users will have to be screened before entry into courthouse.,Rainy River,333 Church Street,P9A 1C9,,0,,Yes,,,,,,
2,Communities,Attorney General,Gore Bay,Gore Bay Courthouse - New Courtroom,Planning,To Be Determined,Creating new courtroom that is accessible.,Improved access to justice.,Manitoulin,27 Phipps Street,P0P 1H0,,0,,Yes,,,,,,
3,Communities,Attorney General,Sudbury,Sudbury Courthouse - Security Improvements,Planning,October 2025,Creating single point of entry for all courthouse users and upgrading security equipment,Improved security as all courthouse users will have to be screened before entry into courthouse.,Sudbury,155 Elm Street,P3C 1T6,,0,,Yes,,,,,,
4,Communities,"Children, Community and Social Services",Attawapiskat First Nation,Attawapiskat Youth Centre,Complete,April 2018,Convert old band office into a youth centre,Improve outcomes for youth in Attawapiskat,Kenora,,,,"$1,200,000",,Yes,,,http://www.attawapiskat.org/,52.55,-82.26,
5,Communities,"Children, Community and Social Services",Dryden,Hoshizaki House Crisis Shelter,Complete,December 2018,Demolition and reconstruction of building,"New 8,000 sq. ft. (approx.) VAW shelter with parking lot, site access and landscaping to provide better, more secure and accessible facilities",Kenora,Address is confidential,,,"$3,100,000",,Yes,Yes,Yes,https://www.cmhc-schl.gc.ca/en/media-newsroom/news-releases/2016/governments-of-canada-and-ontario-build-new-violence-against-women-emergency-shelter-for-victims-of,,,
6,Communities,"Children, Community and Social Services",Garden River First Nation,Dan Pine Healing Lodge ,Complete,March 2016,Upgrades and renovations to existing building,Space to provide programs and services combining traditional healing and contemporary therapeutic interventions,Algoma,200 Anishnabe Point Rd,P0S 1C0,,"$562,147",,Yes,,,,46.531489,-84.161024,
7,Communities,"Children, Community and Social Services",Kirkland Lake,North Eastern Ontario Family and Children's Services,Complete,June 2017,Expansion and renovation of existing building,Multi-service community hub,Timiskaming,6 Tweedsmuir Rd,P2N 1A3,,"$3,600,000",,Yes,,Yes,http://www.neofacs.org/,48.1549,-80.03,
8,Communities,"Children, Community and Social Services",North Bay,HANDS The Family Help Network - North Eastern Ontario Family Help and Treatment Centre,Complete,February 2018,Construction of a new building,"18,000 sq. ft. of clinical and administrative space, with the ability to add 2 floors in the future for colocation and community hub partnerships",Nipissing,391 Oak St,P1B 1A3,,"$8,800,000",,Yes,,Yes,https://news.ontario.ca/mcys/en/2016/12/helping-more-children-and-families-in-north-bay.html https://www.thefamilyhelpnetwork.ca/,46.3091,-79.4608,
9,Education,Colleges and Universities,Greater Sudbury,Laurentian University - Campus Modernization,Complete,April 2018,Renovating and expanding campus,"Adding 47,000 sq.ft. of space for research, innovation and commercialization activity, updating heating systems to reduce electricity consumption",Sudbury,935 Ramsey Lake Rd,P3E 2C6,,"$60,700,000",,Yes,Yes,Yes,,46.466651,-80.974417,
10,Education,Colleges and Universities,Greater Sudbury,Laurentian University - New McEwen School of Architecture,Complete,September 2016,Construction of new building and renovation of CP Rail and CP Telegraph buildings,Adding 2-storeys and renovated space to support teaching and learning in design/culture of northern Ontario,Sudbury,85 Elm St,P3C 1T3,,0,,Yes,,Yes,,46.493067,-80.996585,
11,Education,Colleges and Universities,North Bay,Canadore College,Complete,October 2018,Will provide a new an innovative approach to educating the next generation of health professionals. ,"The facility will house the School of Health, Human Care and Wellness in addition to Student Success and Support Services and include new academic teaching space, a learning commons, flexible student activity rooms, collaborative study space, and event and service delivery space.  Upgrades to building systems will improve sustainability and energy efficiency.",Nipissing,100 College Drive ,P1B 8K9,,"$12,500,000",,Yes,Yes,Yes,,46.343662,-79.492758,
12,Education,Colleges and Universities,Thunder Bay,Confederation College - Technology Education and Collaboration (TEC) Hub,Complete,July 2018,Construction of new building ,"44,000 sq. ft. space to support research, incubation and technology training",Thunder Bay,1450 Nakina Dr,P7C 4W1,,"$20,000,000",,Yes,Yes,Yes,,48.40302,-89.269096,
13,Education,Colleges and Universities,Timmins,Northern College Expansion ,Complete,November 2018,Expansion of the Timmins Campus to support the creation of an Integrated Emergency Services Complex. ,"Expansion will enhance experiential learning for students in a collaborative environment with Emergency Services Responders and house Smart classrooms, video conferencing, training labs and garages, and simulation rooms to support specialized training for fire, police, and paramedic students, professionals and volunteers.  LEED design will contribute to sustainability through energy efficiency.",Cochrane,4715 Highway 101 East,P0N1H0,,"$11,700,000",,Yes,Yes,Yes,,48.486745,-81.201321,
14,Child care,Education,Assiginack,Assiginack Public Elementary School,Complete,September 2019,Expansion of existing school,Addition to accommodate 15 child care spaces and 1 EarlyON room,Manitoulin,134 MICHAELS BAY RD,P0P1N0,,"$1,310,844",,Yes,,Yes,,45.74619818,-81.81125655,
15,Child care,Education,Burk's Falls,Land of Lakes Senior Public Elementary School,Complete,September 2018,Expansion of existing school,Addition to accommodate 1 EarlyON room,Parry Sound,92 ONTARIO ST,P0A1C0,,"$599,963",,Yes,,,,45.61517,-79.40577,
16,Child care,Education,Central Manitoulin,Central Manitoulin Public Elementary School,Complete,September 2018,Renovation of existing school,Renovation to accommodate 15 child care spaces,Manitoulin,56 YONGE ST,P0P1S0,,"$327,711",,Yes,,Yes,,45.7297,-82.16658,
17,Child care,Education,Cochrane,Town of Cochrane Child Care,Complete,September 2018,Expansion of existing building,Addition to accommodate 10 community-based child care spaces,Cochrane,435 TENTH AVE,P0L1C0,,"$800,000",,Yes,,,,49.069757,-81.019783,
18,Child care,Education,Dryden,New Prospect Public Elementary School,Complete,September 2018,Renovation of existing school,Renovation to accommodate 31 child care spaces,Kenora,289 WICE RD,P8N3H6,,"$169,358",,Yes,,,,49.79332,-92.83751,
19,Child care,Education,Dryden,Open Roads Public Elementary School,Complete,January 2018,Renovation of existing school,Renovation to accommodate 24 child care spaces,Kenora,20 DAVIS ST,P8N1R4,,"$361,075",,Yes,,,,49.7736,-92.84046,
20,Child care,Education,Dryden,Dryden Children's Resource/EarlyON Dryden,Complete,September 2018,Renovation of existing building,Renovation to accommodate 40 community-based child care spaces and 1 community-based EarlyON room,Kenora,113 ALBERT ST,P8N1J1 ,,"$400,000",,Yes,,,,49.781206,-92.833528,
21,Child care,Education,Emo,Donald Young Public Elementary School,Complete,September 2021,Expansion of existing school,Addition to accommodate 49 child care spaces,Rainy River,9024 HIGHWAY 602,P0W1E0,,"$2,987,881",,Yes,,Yes,,48.6308,-93.8302,
22,Child care,Education,Fort Frances,Robert Moore Public Elementary School,Complete,September 2020,Renovation of existing school,Renovation to accommodate 49 child care spaces,Rainy River,528 SECOND ST E,P9A1N4,,"$1,210,009",,Yes,,,,48.61346,-93.38707,
23,Child care,Education,Fort Frances,United Native Friendship,Complete,September 2020,Expansion of existing building,Addition to accommodate 49 community-based child care spaces,Rainy River,821 MCIRVINE RD,P9A3X7,,"$2,800,000",,Yes,,,,48.609812,-93.395558,
24,Child care,Education,Greater Sudbury,Garderie Place des Arts,Complete,September 2020,Expansion of existing building,Addition to accommodate 15 community-based child care spaces,Sudbury,27 LARCH ST,P3E1B8,,"$585,000",,Yes,,,,46.490337,-80.995509,
25,Child care,Education,Greenstone,BA Parker Public Elementary School,Complete,September 2021,Renovation of existing school,Renovation to accommodate 49 child care spaces and 1 EarlyON room,Thunder Bay,500 SECOND ST W,P0T1M0,,"$5,010,724",,Yes,,Yes,,49.72166,-86.95543,
26,Child care,Education,Ignace,Ignace Public Elementary School,Under construction,2024,Renovation of existing school,Renovation to accommodate 15 child care spaces,Kenora,194 DAVEY LAKE RD,P0T1T0,,"$1,401,956",,Yes,,Yes,,49.40932797,-91.66086208,
27,Child care,Education,Kapuskasing,École élémentaire catholique Jacques-Cartier,Complete,September 2019,Renovation of existing school,Renovation to accommodate 10 child care spaces,Cochrane,8 BRUNELLE RD S,P5N2T2,,"$403,337",,Yes,,,,49.40793,-82.40249,
28,Child care,Education,Kenora,Evergreen Public Elementary School,Complete,February 2021,Renovation of existing school,Renovation to accommodate 15 child care spaces,Kenora,675 BRINKMAN RD,P9N2R5,,"$806,672",,Yes,,Yes,,49.77279,-94.47243,
29,Child care,Education,Kenora,Keewatin Public Elementary School,Complete,March 2021,Renovation of existing school,Renovation to accommodate 24 child care spaces,Kenora,330 MILL ST,P0X1C0,,"$418,485",,Yes,,Yes,,49.76,-94.561,
30,Child care,Education,Kenora,Pope John Paul II Catholic Elementary School,Complete,September 2020,Renovation of existing school,Renovation to accommodate 15 child care spaces,Kenora,1290 HEENAN PL,P9N2Y8,,"$403,337",,Yes,,,,49.78139,-94.46025,
31,Child care,Education,Kenora,FIREFLY Child Care,Complete,September 2019,Renovation of existing building,Renovation to accommodate 15 community-based child care spaces,Kenora,820 LAKEVIEW DR,P9N3P7,,"$400,000",,Yes,,,,49.76328,-94.528036,
32,Child care,Education,Kenora,Kids Zone Lakeside ,Complete,September 2018,Renovation of existing building,Renovation to accommodate 15 community-based child care spaces,Kenora,216 SIXTH STREET S,P9N1M7,,"$350,000",,Yes,,,,49.758838,-94.485998,
33,Child care,Education,Kenora,St. Louis Catholic Elementary School,Planning,September 2024,Renovation of existing school,Renovation to accommodate 15 child care spaces,Kenora,420 8TH ST,P0X1C0,,"$610,032",,Yes,,Yes,,49.75911,-94.5565,
34,Child care,Education,"Macdonald, Meredith and Aberdeen Add'l",Echo Bay Central Public Elementary School,Complete,September 2020,Expansion of existing school,Addition to accommodate 10 child care spaces,Algoma,290 CHURCH ST,P0S1C0,,"$655,422",,Yes,,,,46.48567,-84.0637,
35,Child care,Education,Machin,Lillian Berg Public Elementary School,Under construction,2024,Renovation of existing school,Renovation to accommodate 15 child care spaces,Kenora,1 SCHOOL LANE,P0V2V0,,"$1,225,488",,Yes,,Yes,,49.8567,-93.3849,
36,Child care,Education,Markstay-Warren,Markstay Public Elementary School,Complete,September 2018,Renovation of existing school,Renovation to accommodate 30 child care spaces,Sudbury,7 PIONEER ST E,P0M2G0,,"$504,171",,Yes,,Yes,,46.4929,-80.54006,
37,Child care,Education,North Bay,Woodland Public Elementary School,Complete,September 2018,Expansion of existing school,Addition to accommodate 73 child care spaces,Nipissing,1325 CEDARGROVE DR,P1B4S3,,"$2,989,389",,Yes,,,,46.3298394,-79.4793134,
38,Child care,Education,North Bay,St. Francis Catholic Elementary School,Complete,January 2020,Expansion of existing school,Addition to accommodate 73 child care spaces,Nipissing,68 GERTRUDE ST E,P1A1J8,,"$2,399,852",,Yes,,,,46.28934,-79.44714,
39,Child care,Education,North Bay,Mother St. Bride Catholic Elementary School,Complete,May 2019,Renovation of existing school,Renovation to accommodate 49 child care spaces,Nipissing,414 SECOND AVE W,P1B3L2,,"$899,945",,Yes,,,,46.31649,-79.46297,
40,Child care,Education,North Bay,école secondaire publique l'Odyssée,Complete,September 2019,Renovation of existing school,Renovation to accommodate 34 child care spaces,Nipissing,480 NORMAN AVE,P1B0A8,,"$1,199,926",,Yes,,,,46.32885,-79.43518,
41,Child care,Education,Northeastern Manitoulin and The Islands,Little Current Public Elementary School,Under construction,2024,Renovation of existing school,Renovation to accommodate 10 child care spaces,Manitoulin,18 DRAPER ST,P0P1K0,,"$327,711",,Yes,,,,45.97631,-81.9268,
42,Child care,Education,Parry Sound,Journey Together,Complete,September 2018,Renovation of existing building,Renovation to accommodate 15 community-based child care spaces,Parry Sound,86 GIBSON ST,P2A1X5,,"$100,000",,Yes,,,,45.348958,-80.035371,
43,Child care,Education,Perry,Highlands Early Learning and Child Care,Complete,September 2018,Renovation of existing building,Renovation to accommodate 39 community-based child care spaces,Parry Sound,2500 HWY 592 N,P0A1J0,,"$595,000",,Yes,,,,45.54324,-79.324931,
44,Child care,Education,Sables-Spanish Rivers,S Geiger Public Elementary School,Complete,September 2018,Renovation of existing school,Renovation to accommodate 30 child care spaces,Sudbury,355 GOVERNMENT RD W,P0P1P0,,"$605,005",,Yes,,,,46.2061,-82.08193,
45,Child care,Education,Sault Ste. Marie,R M Moore Public Elementary School,Complete,September 2020,Expansion of existing school,Addition to accommodate 49 child care spaces,Algoma,1272 BASE LINE,P6A5K6,,"$1,875,515",,Yes,,,,46.52177,-84.44407,
46,Child care,Education,Sault Ste. Marie,Rosedale Neighborhood Child Care/Rosedale Neighborhood EarlyON,Complete,September 2018,Renovation of existing building,Renovation to accommodate 49 community-based child care spaces and 2 community-based EarlyON rooms,Algoma,90 CHAPPLE AVE,P6B3P1,,"$1,550,000",,Yes,,,,46.52371,-84.311725,
47,Child care,Education,Sioux Lookout,Sioux Mountain Public Elementary School,Complete,September 2018,Renovation of existing school,Renovation to accommodate 39 child care spaces and 1 EarlyON room,Kenora,89 FIRST AVE,P8T1B5,,"$1,210,008",,Yes,,Yes,,50.10714,-91.90988,
48,Child care,Education,Sioux Lookout,EarlyON Sioux Lookout /Norah Love ,Complete,September 2018,Renovation of existing building,Renovation to accommodate 20 community-based child care spaces and 1 community-based EarlyON room,Kenora,54 PRINCESS ST,P8T1H4,,"$1,200,000",,Yes,,,,50.102518,-91.917292,
49,Child care,Education,South Algonquin,EarlyON South Algonquin/Kidz Kastel Children's South Algonquin,Complete,September 2018,Renovation of existing building,Renovation to accommodate 15 community-based child care spaces and 1 community-based EarlyON room,Nipissing,6 GALEAIRY LAKE RD,K0J2M0,,"$525,000",,Yes,,,,45.488712,-78.244655,
50,Child care,Education,St. Charles,École élémentaire catholique Saint-Charles-Borromée,Complete,March 2018,Renovation of existing school,Renovation to accommodate 15 child care spaces,Sudbury,22 STE ANNE ST,P0M2W0,,"$299,982",,Yes,,,,46.36398,-80.41916,
51,Child care,Education,Temiskaming Shores,Indigenous EarlyON New Liskeard,Complete,September 2018,Expansion of existing building,Addition to accommodate 2 community-based EarlyON rooms,Timiskaming,121 SCOTT ST,P0J1P0,,"$1,500,000",,Yes,,,,47.511948,-79.683931,
52,Child care,Education,Timmins,Schumacher Public Elementary School,Complete,September 2019,Renovation of existing school,Renovation to accommodate 49 child care spaces,Cochrane,64 CROATIA AVE,P0N1G0,,"$1,134,384",,Yes,,Yes,,48.47474,-81.29694,
53,Child care,Education,Timmins,St. Joseph Catholic Elementary School,Under construction,September 2024,Expansion of existing school,Addition to accommodate 49 child care spaces,Cochrane,207 HUOT ST,P0N1H0,,"$5,459,836",,Yes,,,,48.4839,-81.2059,
54,Child care,Education,West Nipissing,Our Lady of Sorrows Catholic Elementary School,Complete,April 2019,Renovation of existing school,Renovation to accommodate 24 child care spaces,Nipissing,680 COURSOL RD,P2B3L1,,"$299,982",,Yes,,,,46.36983,-79.91432,
55,Education,Education,Atikokan,Atikokan Public Elementary and Secondary School,Complete,August 2023,Expansion of existing school,"New classroom addition of 354 pupil places to accommodate students as a result of consolidation, including 49 child care spaces and 1 EarlyON room",Rainy River,324 MERCURY AVE,P0T1C0,,"$24,449,515",,Yes,,Yes,,48.76249,-91.61241,
56,Education,Education,Blind River,Blind River Public Elementary and Secondary School,Under construction,September 2025,Construction of new school,"New facility to accommodate 381 students as a result of a consolidation, including the construction of 64 child care spaces and of 2 EarlyON rooms",Algoma,180 YOUNGFOX RD,P0R1B0,,"$41,597,813",,Yes,,Yes,,46.18326,-82.97448,
57,Education,Education,Blind River,école élémentaire publique Blind River,Under construction,September 2025,Construction of new school,New facility to accommodate 72 underserved French-language students,Algoma,180 YOUNGFOX RD,P0R1B0,,"$5,423,948",,Yes,,Yes,,46.18326,-82.97448,
58,Education,Education,Bonfield,École élémentaire catholique Lorrain,Complete,September 2015,Renovation of existing school,School renovation as a result of condition of school,Nipissing,245 YONGE ST RR 1,P0H1E0,,"$1,624,762",,Yes,Yes,,,46.23632,-79.14587,
59,Education,Education,Bruce Mines,Arthur Henderson Annex Public Elementary School,Complete,September 2015,Demolition,Full/Partial demolition of the existing facility,Algoma,3 HENDERSON LANE RR 2,P0R1C0,,"$208,787",,Yes,,,,46.302754,-83.781321,
60,Education,Education,Burk's Falls,Land of Lakes Senior Public Elementary School,Complete,September 2017,Renovation of existing school,School renovation to address accommodation needs as a result of a consolidation,Parry Sound,92 ONTARIO ST,P0A1C0,,"$2,191,130",,Yes,,,,45.61517,-79.40577,
61,Education,Education,Dorion,École élémentaire catholique Immaculée-Conception,Complete,September 2016,Renovation of existing school,School renovation,Thunder Bay,119 LILY PAD RD,P0T1T0,,0,,,,Yes,,49.40547667,-91.65921007,
62,Education,Education,East Ferris,École élémentaire catholique Saint-Thomas-d'Aquin,Complete,September 2015,New school built,New replacement facility to accommodate 245 students,Nipissing,1245 VILLAGE RD RR 1,P0H1B0,,"$8,126,396",,Yes,,,,46.18704,-79.2866,
63,Education,Education,Emo,Donald Young Public Elementary School,Complete,September 2018,Renovation of existing school,School renovation,Rainy River,9024 HIGHWAY 602,P0W1E0,,0,,,,Yes,,48.6308,-93.8302,
64,Education,Education,Espanola,AB Ellis-Espanola Public Elementary and Secondary School,Complete,September 2016,Renovation of existing school,School renovation to address accommodation needs as a result of a consolidation,Sudbury,147 SPRUCE AVE,P5E1R7,,"$6,746,856",,Yes,,Yes,,46.26322,-81.77023,
65,Education,Education,Espanola,Sacred Heart Catholic Elementary School,Complete,September 2021,Construction of new school,"New replacement facility to accommodate 245 students, including the construction of 49 child care spaces and of 1 EarlyON room",Sudbury,273 MEAD BLVD,P5E1B3,,"$11,095,594",,Yes,,Yes,,46.2606062,-81.7738041,
66,Education,Education,Espanola,École élémentaire et secondaire catholique Renaissance,Complete,September 2021,Construction of new school,"New facility to accommodate 310 underserved French-language students, including the construction of 49 child care spaces",Sudbury,273 MEAD BLVD,P5E1B3,,"$14,006,838",,Yes,,Yes,,46.260253,-81.772933,
67,Education,Education,Fort Frances,St. Mary Catholic Elementary School,Complete,January 2020,Construction of new school,"New facility to accommodate 345 students as a result of a consolidation, including the construction of 39 child care spaces",Rainy River,755 FLINDERS AVE,P9A3L2,,"$13,676,077",,Yes,,Yes,,48.6107949,-93.4217571,
68,Education,Education,Fort Frances,Full Day Kindergarten Projects,Complete,September 2016,Demolition,Full/Partial demolition of the existing facility,Rainy River,522 SECOND ST E,P9A1N4,,"$12,404",,Yes,,,,48.61346,-93.38707,
69,Education,Education,Fort Frances,St. Mary Catholic Elementary School,Complete,March 2024,Expansion of existing school,New classroom addition of 69 pupil places for a growing school,Rainy River,755 FLINDERS AVE,P9A3L2,,"$5,851,846",,Yes,,,,48.61251893,-93.42182511,
70,Education,Education,Greater Sudbury,St. Charles College Catholic Secondary School,Complete,September 2015,Retrofit,"Accommodates about 1,290 Gr. 7 to 12 students",Sudbury,1940 HAWTHORNE DR,P3A1M8,,"$3,320,612",,Yes,,Yes,,46.51773,-80.92679,
71,Education,Education,Greater Sudbury,École secondaire publique Cap sur l'Avenir,Complete,September 2017,Renovation of existing school,School renovation to address accommodation needs as a result of a consolidation,Sudbury,190 LARCH ST,P3E1C5,,"$1,067,838",,Yes,,,,46.49159339,-80.99008158,
72,Education,Education,Greater Sudbury,École élémentaire catholique Hanmer-Val Thérèse,Under construction,September 2025,Construction of new school,"New facility to accommodate 567 students as a result of a consolidation, including the construction of 73 child care spaces and of 1 EarlyON room",Sudbury,TBD,TBD,,"$21,721,101",,Yes,,Yes,,,,
73,Education,Education,Greater Sudbury,Churchill Public Elementary School,Complete,September 2022,Expansion of existing school,"Expansion to accommodate school population as a result of a consolidation, including 49 child care spaces",Sudbury,1722 FIELDING ST,P3A1P1,,"$4,266,712",,Yes,,,,46.51866,-80.93435,
74,Education,Education,Greater Sudbury,Confederation Public Secondary School,Complete,September 2018,Expansion of existing school,Expansion to accommodate school population,Sudbury,1918 MAIN ST,P3N1R8,,"$1,635,590",,Yes,,,,46.6117,-81.02007,
75,Education,Education,Greater Sudbury,Levack Public Elementary School,Planning,September 2024,Renovation of existing school,"Renovation to address accommodation needs as a result of a consolidation, including 39 child care spaces",Sudbury,100 HIGH ST,P0M2C0,,"$1,319,879",,Yes,,,,46.64506,-81.3967,
76,Education,Education,Greater Sudbury,Sudbury Consolidation Public Elementary School,Complete,September 2023,Construction of new school,"New facility to accommodate 387 students as a result of a consolidation, including the construction of 49 child care spaces and of 1 EarlyON room",Sudbury,1545 KENNEDY ST,P3A2G1,,"$16,027,362",,Yes,,Yes,,46.524298,-80.939866,
77,Education,Education,Greater Sudbury,Holy Trinity Catholic Elementary School,Complete,September 2015,New school built,New facility to accommodate 578 students as a result of a consolidation,Sudbury,1945 HAWTHORNE DR,P3A0C1,,"$11,776,020",,Yes,,,,46.516,-80.927,
78,Education,Education,Greater Sudbury,St. David Catholic Elementary School,Complete,September 2015,New school built,New replacement facility to accommodate 200 students,Sudbury,549 FROOD RD,P3C5A2,,"$8,746,306",,Yes,,,,46.50684,-81.00673,
79,Education,Education,Greater Sudbury,St. Paul the Apostle Catholic Elementary School,Complete,September 2018,Demolition,Full/Partial demolition of the existing facility,Sudbury,1 EDWARD AVE,P0M1M0,,"$1,269,122",,Yes,,Yes,,46.49429,-80.85059,
80,Education,Education,Greater Sudbury,Chelmsford Valley District Public Secondary School,Complete,September 2021,Renovation of existing school,Renovation to address accommodation needs as a result of a consolidation,Sudbury,3594 HIGHWAY 144 E,P0M1L0,,"$5,882,653",,Yes,,Yes,,46.5699,-81.19392,
81,Education,Education,Greenstone,Geraldton Public Secondary School,Complete,September 2021,Renovation of existing school,Renovation to improve school condition,Thunder Bay,500 SECOND ST W,P0T1M0,,"$1,013,510",,Yes,,Yes,,49.72188,-86.95383,
82,Education,Education,Hearst,école élémentaire publique Passeport Jeunesse,Complete,September 2019,Renovation of existing school,Renovation to address accommodation needs for a growing school,Cochrane,75 9TH ST,P0L1N0,,"$1,236,879",,Yes,,,,49.6839,-83.6658,
83,Education,Education,Hearst,École élémentaire publique Passeport Jeunesse,Complete,September 2020,Renovation of existing school,Renovation to address underserved French-language students to accommodate students,Cochrane,75 9TH ST,P0L1N0,,"$1,865,553",,Yes,Yes,,,49.6839,-83.6658,
84,Education,Education,Iroquois Falls,École secondaire publique l'Alliance,Complete,September 2020,Construction of new school,New facility to accommodate 180 underserved French-language students,Cochrane,296 CAMBRIDGE AVE,P0K1E0,,"$7,093,955",,Yes,Yes,Yes,,48.76236364,-80.68691756,
85,Education,Education,Iroquois Falls,École secondaire catholique l'Alliance,Complete,September 2020,Construction of new school,New facility to accommodate 180 underserved French-language students,Cochrane,296 CAMBRIDGE AVE,P0K1E0,,"$7,093,955",,Yes,Yes,Yes,,48.76236364,-80.68691756,
86,Education,Education,Iroquois Falls,École élémentaire publique Étoile du Nord,Complete,September 2015,Expansion of existing school,School addition and renovation,Cochrane,551 UNION ST,P0K1G0,,"$3,463,084",,Yes,Yes,Yes,,48.76609063,-80.69368435,
87,Education,Education,Johnson,Central Algoma Public Elementary and Secondary School,Complete,September 2016,Expansion of existing school,New classroom addition of 125 pupil places to accommodate students as a result of a consolidation,Algoma,32 KENSINGTON RD RR 1,P0R1E0,,"$3,069,292",,Yes,,,,46.34007,-83.9369,
88,Education,Education,Johnson,Central Algoma Public Elementary and Secondary School,Complete,March 2021,Expansion of existing school,"New classroom addition of 95 pupil places to accommodate students as a result of a consolidation, including 64 child care spaces",Algoma,32 KENSINGTON RD RR 1,P0R1E0,,"$8,642,578",,Yes,,,,46.34007,-83.9369,
89,Education,Education,Kapuskasing,École élémentaire publique Coeur du Nord,Complete,September 2016,Expansion of existing school,New classroom addition of 98 pupil places for a growing school,Cochrane,80 CEDAR ST,P5N2B3,,"$3,241,826",,Yes,Yes,Yes,,49.4205,-82.4266,
90,Education,Education,Kenora,Valleyview Public Elementary School,Complete,September 2016,Renovation of existing school,School renovation as a result of condition of school,Kenora,1529 VALLEY DR,P9N4K3,,0,,,,Yes,,49.78314,-94.44565,
91,Education,Education,Kenora,Nestor Falls Public Elementary School,Planning,January 2025,Construction of new school,New replacement facility to accommodate 46 students,Kenora,TBD,P0X1K0,,"$3,682,023",,Yes,,,,,,
92,Education,Education,Moosonee,Northern Lights Secondary School,Complete,September 2015,Renovation of existing school,School renovation as a result of condition of school,Cochrane,2 KEEWATIN DR,P0L1Y0,,"$1,176,000",,Yes,,,,51.285029,-80.625623,
93,Education,Education,Nipissing District,École élémentaire catholique Mariale,Complete,September 2015,Renovation of existing school,School renovation as a result of condition of school,Parry Sound,1000 BIRCH ST,P0H2J0,,"$1,998,000",,Yes,,,,46.70041,-79.10389,
94,Education,Education,North Bay,Woodland Public Elementary School,Complete,September 2016,New school built,New facility to accommodate 507 students as a result of a consolidation,Nipissing,1325 CEDARGROVE DR,P1B4S3,,"$11,584,628",,Yes,,,,46.3298394,-79.4793134,
95,Education,Education,North Bay,Pinewood Public Elementary School,Complete,September 2016,Demolition,Full/Partial demolition of the existing facility,Nipissing,1325 CEDARGROVE DR,P1B4S3,,"$809,546",,Yes,,,,46.329832,-79.479063,
96,Education,Education,North Bay,Fricker Public Elementary School,Complete,September 2023,Construction of new school,"New facility to accommodate 308 students as a result of a consolidation, including the construction of 73 child care spaces and of 1 EarlyON room",Nipissing,790 NORMAN AVE,P1B8C4,,"$15,630,588",,Yes,,Yes,,46.32941739,-79.42889455,
97,Education,Education,North Bay,Fricker Public Elementary School,Complete,September 2022,Demolition,Full/Partial demolition of the existing facility,Nipissing,790 NORMAN AVE,P1B8C4,,"$408,475",,Yes,,,,46.32941739,-79.42889455,
98,Education,Education,Parry Sound,Parry Sound Public Elementary and Secondary School,Under construction,September 2025,Construction of new school,"New facility to accommodate 815 students as a result of a consolidation, including the construction of 49 child care spaces and of 1 EarlyON room",Parry Sound,111 ISABELLA ST,P2A1N2,,"$50,856,108",,Yes,,Yes,,45.35447482,-80.03883137,
99,Education,Education,Parry Sound,Parry Sound Public Elementary School,Complete,September 2016,New school built,New replacement facility to accommodate 640 students,Parry Sound,21 BEATTY ST,P2A2H5,,"$12,572,291",,Yes,,,,45.3575498,-80.02935177,
100,Education,Education,Rainy River,Rainy River Public Elementary and Secondary School,Under construction,October 2024,Construction of new school,"New facility to accommodate 311 students as a result of a consolidation, including the construction of 39 child care spaces and of 1 EarlyON room",Rainy River,1-11 MILL AVENUE,P0W1L0,,"$25,482,646",,Yes,,Yes,,48.71935574,-94.56173919,
101,Education,Education,Red Lake,Red Lake District  Public Secondary School,Complete,September 2015,Renovation of existing school,School renovation as a result of condition of school,Kenora,60C HWY 105,P0V2M0,,0,,,,Yes,,51.01412,-93.81795,
102,Education,Education,Red Rock,St. Hilary Catholic Elementary School,Complete,January 2024,Expansion of existing school,New classroom addition of 23 pupil places,Thunder Bay,62 SALLS ST,P0T2P0,,"$1,638,793",,Yes,,Yes,,48.9403534,-88.26184602,
103,Education,Education,Sault Ste. Marie,St. Mary's College Catholic Secondary School,Complete,September 2015,New school built,New facility to accommodate 1413 students as a result of a consolidation,Algoma,868 Second Line E,P6B4K4,,"$45,395,617",,Yes,,Yes,,46.54026753,-84.30681955,
104,Education,Education,Sault Ste. Marie,Boreal Public Elementary School,Complete,September 2018,Renovation of existing school,"Renovation to improve school condition, including 49 child care spaces",Algoma,232 NORTHERN AVE E,P6B4H6,,"$11,737,857",,Yes,,Yes,,46.53525734,-84.3253486,
105,Education,Education,Sault Ste. Marie,St. Basil Catholic Elementary School,Complete,September 2017,Renovation of existing school,"Renovation to address accommodation needs as a result of a consolidation, including 49 child care spaces and 1 child and family room",Algoma,250 ST GEORGE'S AVE E,P6B1X5,,"$7,785,157",,Yes,,Yes,,46.5227294,-84.3292173,
106,Education,Education,Sault Ste. Marie,Tarentorus Public Elementary School,Under construction,2024,Expansion of existing school,"New classroom addition of 92 pupil places for a growing school, including 49 child care spaces",Algoma,96 NORTHWOOD ST,P6B4M4,,"$7,452,061",,Yes,,Yes,,46.54581362,-84.30800343,
107,Education,Education,Sault Ste. Marie,HM Robbins Public Elementary School,Under construction,January 2026,Expansion of existing school,"New classroom addition of 26 pupil places for a growing school, including 64 child care spaces",Algoma,83 EAST BALFOUR ST,P6C1X4,,"$4,538,740",,Yes,,,,46.5328,-84.38951,
108,Education,Education,Sioux Lookout,Sioux North Public Secondary School,Complete,September 2018,Construction of new school,New replacement facility to accommodate 513 students,Kenora,86 THIRD AVE N,P8T1A9,,"$23,794,904",Yes,Yes,,Yes,,50.1094544,-91.91154857,
109,Education,Education,Smooth Rock Falls,Smooth Rock Falls Public Elementary School,Complete,September 2016,Renovation of existing school,School renovation to address accommodation needs as a result of a consolidation,Cochrane,50 THIRD ST,P0L2B0,,"$715,991",,Yes,,,,49.2773143,-81.6342199,
110,Education,Education,South Algonquin,St. Martin of Tours Catholic Elementary School,Complete,September 2017,Renovation of existing school,School renovation to address accommodation needs as a result of a consolidation,Nipissing,62 POST ST,K0J2M0,,"$1,112,355",,Yes,,Yes,,45.4926,-78.23353,
111,Education,Education,Temiskaming Shores,École élémentaire catholique Saint-Michel,Complete,September 2017,Expansion of existing school,New classroom addition of 78 pupil places to accommodate students as a result of a consolidation,Timiskaming,998075 HIGHWAY 11 N,P0J1P0,,"$4,588,758",,Yes,Yes,Yes,,47.54344,-79.67363,
112,Education,Education,Temiskaming Shores,Timiskaming District Public Secondary School,Complete,September 2015,Renovation of existing school,School renovation to address accommodation needs as a result of a consolidation,Timiskaming,90 NIVEN ST N,P0J1P0,,"$870,565",,Yes,,,,47.51151,-79.67961,
113,Education,Education,Thunder Bay,Kingsway Park Public Elementary School,Complete,September 2017,Expansion of existing school,"New classroom addition of 101 pupil places to accommodate students as a result of a consolidation, including 49 child care spaces",Thunder Bay,315 EMPIRE AVE,P7E4R9,,"$6,015,680",,Yes,,,,48.37209,-89.26674,
114,Education,Education,Thunder Bay,École élémentaire catholique Franco-Supérieur,Complete,September 2016,Expansion of existing school,Minor school addition and renovation to accommodate a child care centre,Thunder Bay,220 ELGIN ST,P7A0A4,,0,,,Yes,,,48.4407229,-89.2147366,
115,Education,Education,Thunder Bay,École Elsie MacGill Public Elementary School,Complete,September 2020,New school built,"New facility to accommodate 745 students as a result of a consolidation, including the construction of 49 child care spaces",Thunder Bay,130 CHURCHILL DR W,P7C1V5,,"$27,980,790",,Yes,,Yes,,48.38839,-89.28096,
116,Education,Education,Thunder Bay,Westgate Public Secondary School,Complete,September 2018,Expansion of existing school,New classroom addition of 79 pupil places to accommodate students as a result of a consolidation,Thunder Bay,707 JAMES ST S,P7E2V9,,"$4,749,675",,Yes,,Yes,,48.37316,-89.29105,
117,Education,Education,Thunder Bay,École secondaire catholique de La Vérendrye,Complete,September 2015,Renovation of existing school,School renovation as a result of condition of school,Thunder Bay,175 HIGH ST N,p7a8c7,,0,,,,Yes,,48.44435,-89.22939,
118,Education,Education,Thunder Bay,Sir Winston Churchill Public Secondary School,Complete,September 2018,Demolition,Full/Partial demolition of the existing facility,Thunder Bay,130 CHURCHILL DR W,P7C1V5,,"$3,491,187",,Yes,,,,48.389,-89.28265,
119,Education,Education,Thunder Bay,école élémentaire publique Thunder Bay,Complete,September 2023,Renovation of existing school,Renovation to accommodate 257 underserved French-language students,Thunder Bay,TBD,P7C1H2,,"$1,100,000",,Yes,,,,,,
120,Education,Education,Thunder Bay District,Savant Lake Public Elementary School,Planning,September 2025,Construction of new school,New replacement facility to accommodate 95 students,Thunder Bay,FIRST ST,POV2S0,,"$4,750,222",,Yes,,,,,,
121,Education,Education,Timmins,Pope Francis Catholic Elementary School,Complete,September 2018,Expansion of existing school,"New classroom addition of 150 pupil places to accommodate students as a result of a consolidation, including 34 child care spaces",Cochrane,387 BALSAM ST N,P4N6H5,,"$6,716,636",,Yes,,Yes,,48.48385,-81.3314,
122,Education,Education,Timmins,école élémentaire publique Lionel Gauthier,Complete,September 2016,Expansion of existing school,New classroom addition of 46 pupil places for a growing school,Cochrane,145 ST. JEAN ST,P4R0J7,,"$232,150",,Yes,,Yes,,48.47749,-81.38019,
123,Education,Education,Timmins,École élémentaire publique Lionel Gauthier,Complete,September 2016,New school built,New replacement facility to accommodate 300 students,Cochrane,145 ST. JEAN ST,P4R0J7,,"$9,604,282",,Yes,Yes,Yes,,48.47749,-81.38019,
124,Education,Education,West Nipissing,École élémentaire publique Jeunesse Active,Complete,September 2015,Expansion of existing school,New classroom addition of 61 pupil places for a growing school,Nipissing,130 LISGAR ST,P2B3H4,,"$3,112,199",,Yes,,Yes,,46.372,-79.9409,
125,Education,Education,West Nipissing,École élémentaire catholique la Résurrection,Complete,September 2015,Renovation of existing school,Minor school renovation to accommodate a child care,Nipissing,136 THIRD ST,P2B3C6,,0,,,Yes,Yes,,46.36026,-79.92363,
126,Communities,"Environment, Conservation and Parks",North Bay,Quartier général de la gestion des feux de North Bay,Complete,April 2017,Relocation to Jack Garland Airport,"3 operations brought together in new 13,600 sq. ft. space",Nipissing,40 Voodoo Cres,P1C 0B8,,"$9,500,000",,Yes,,,,46.365551,-79.403123,
127,Communities,"Environment, Conservation and Parks",Thunder Bay,Thunder Bay Provincial Logistics Centre/Fire Management Headquarters Expansion,Complete,December 2017,New construction and renovations ,"More than 59,000 sq. ft. renovated and almost 8,000 sq. ft. added for increased and improved space for staff and better traffic routing",Thunder Bay,1580 Arthur St W,P7K 1A6,,"$25,000,000",,Yes,,,http://www.infrastructureontario.ca/Fire-Management-Headquarters/,48.379044,-89.332477,
128,Health care,Health,Atikokan,Atikokan General Hospital - Renovation and Expansion,Complete,July 2017,"Renovating roughly 8,500 sq. ft. and adding roughly 10,000 sq. ft.","More space for 11 acute-care and other types of beds, as well as improved air handling, boiler and sprinkler systems",Rainy River,120 Dorothy St,P0T 1C0,,0,,Yes,,Yes,,48.753595,-91.598441,
129,Health care,Health,Blind River,Anishnawbe Mushkiki AHAC - N'Mninoeayaa AHAC Site,Complete,March 2015,Construct a satellite building adjacent to the existing facility,Additional file storage and meeting space in Cutler.,Algoma,473 ON-17,P0P 1B0,,"$609,200",,Yes,,,,46.187155,-82.924852,
130,Health care,Health,Dryden,Dryden Regional Health Centre - Satellite Renal (Hemodialysis) Unit,Planning,October 2026,na,na,Kenora,58 Goodall St,P8N 2Z6,,0,,Yes,,Yes,,49.76977892,-92.83900285,
131,Health care,Health,Espanola,Espanola Regional Hospital and Health Centre Emergency Department Expansion,Complete,June 2014,Renovations  to the emergency department,Increased capacity from 5 to 11 treatment bays,Sudbury,825 McKinnon Dr,P5E 1R4,,0,,Yes,,Yes,,46.248285,-81.783185,
132,Health care,Health,Fort Frances,Gizhewaadiziwin Health Access Centre - Renovation / Expansion Project,Planning,December 2026,"This project will renovate and expand the Gizhewaadiziwin Health Access Centre in Fort Francis, to bring existing space up to current standards and allow for program expansion.","The project wil allow for program expansion and an increase in capacity for existing services.  Using of an improved model of care hub multi-service model, this project will improve access to safety/security, access to mental health and addictions services and chronic disease management care.",Rainy River,"1460 Idylwild Dr,",P9A 3M3,,0,,Yes,,,,48.63089192,-93.35955468,
133,Health care,Health,Greater Sudbury,Health Sciences North (formerly L'Hopital Regional de Sudbury Regional Hospital) - Northern Ontario School of Medicine,Complete,November 2021,"This project will build a state-of-the-art facility to serve as a training ground for future doctors, nurses, lab technicians, paramedics and other health professionals. The project includes spaces for academic administration, meeting / learning suites and a new Simulation Lab.",New and improved space for students in Northern Ontario School of Medicine,Sudbury,41 Ramsey Lake Rd,P3E 5J1,,"$22,826,100",,Yes,,Yes,https://www.hsnsudbury.ca/portalen/,46.467734,-80.996267,
134,Health care,Health,Greater Sudbury,St Joseph's Continuing Care Centre Of Sudbury - Rehabilitation Bed Expansion Project,Under construction,November 2024,na,na,Sudbury,Lasalle Boulevard,P3A 1W7,,"$18,195,100",,Yes,,Yes,,46.52196792,-80.97981513,
135,Health care,Health,Greater Sudbury,St Joseph's Continuing Care Centre Of Sudbury - Phase Two Rehabilitation Bed Expansion Project,Planning,September 2025,na,na,Sudbury,1140 S Bay Rd,P3E 0B6,,0,,Yes,,Yes,,46.46673544,-80.96669052,
136,Health care,Health,Kenora,Waasegiizhig Nanaandawe'iyewigamig Health Access Centre - Redevelopment Project,Planning,January 2026,The project includes relocation and redevelopment to consolidate two sites into one new building in Kenora. ,"The project will allow for program expansion, and allow for multiple program or site aggregation. The project addresses chronic diseases management and access to mental health & addiction services.",Kenora,212 4th Ave S.,P9N 1Y9,,0,,Yes,,,,49.7651494,-94.48761896,
137,Health care,Health,Manitoulin,Noojmowin Teg Health Centre Expansion,Complete,September 2016,"4,400 sq. ft.-addition to replace temporary buildings","New space for traditional healers, a traditional healing lodge and health care professionals.",Manitoulin,48 Hillside Dr,P0P 1K0,,"$2,363,300",,Yes,,Yes,,45.811014,-81.706657,
138,Health care,Health,Marathon,North of Superior Health Care Group (NOSH) - Wilson Memorial General Hospital Site LTC addition - Complex Continuing Care (CCC) Bed Relocation,Under construction,July 2025,na,na,Thunder Bay,26 Peninsula Rd,P0T2E0,,"$3,133,600",,Yes,,Yes,,48.71909601,-86.37544639,
139,Health care,Health,Moosonee,Weeneebayko Area Health Authority - Replacement Facility,Planning,November 2030,"New hospital, and Elder Care Lodge in Moosonee and a new ambulatory care center in Moose Factory.","This project will address aging infrastructure/poor physical condition of existing facilities, by building replacement facilities that will enable the provision of culturally safe health care for clients and patients for residents in Moosonee, Moose Factory, and along the James Bay Coast",Cochrane,5 Percy's Way,POL 1Y0,,0,,Yes,,Yes,,51.271185,-80.650871,
140,Health care,Health,Moosonee,Weeneebayko Area Health Authority - Regional Safe Room Renovation,Under construction,September 2024,na,na,Cochrane,19 Hospital Drive,POL 1W0,,"$2,691,200",,Yes,,Yes,,51.26266187,-80.59311404,
141,Health care,Health,Moosonee,Weeneebayko Area Health Authority - Electrical heat Upgrade,Planning,September 2024,na,na,Cochrane,5 Percy's Way,POL 1Y0,,0,,Yes,,,,51.271185,-80.650871,
142,Health care,Health,Sudbury,Health Sciences North - Bed Capacity Project,Complete,January 2024,The project will allow for conversion of the existing space at Ramsey Lake Health Centre  into new conventional patient bed spaces complete with support services. ,The project will create over 50 new patient bed spaces.,Sudbury,"41 Ramsey Lake Road, ",P3E 5J1,,"$9,623,500",,Yes,,Yes,,46.46809364,-80.99667725,
143,Health care,Health,Thunder Bay,St. Joseph's Hospital  - Expansion for Specialized Mental Health Rehabilitation,Complete,June 2018,Construction of new east wing for specialized mental health care.,38 beds added for people needing active and long-term psychiatric rehabilitation and geriatric psychiatry.,Thunder Bay,35 North Algoma St,P7B 5G7,,0,,Yes,,Yes,,48.4381,-89.222415,
144,Health care,Health,Thunder Bay,Thunder Bay Regional Health Sciences Centre - Cardiovascular Surgery Program,Planning,March 2027,"The Project involves new construction and renovation of space at Thunder Bay Regional Health Sciences Centre and includes a cardiovascular surgical inpatient unit, an additional operating room, a vascular lab and outpatient clinic.",Improved access to cardiovascular surgery and related services for residents of Thunder Bay and Northwestern Ontario.,Thunder Bay,980 Oliver Rd,P7B 6V4,,0,,Yes,,Yes,,48.428793,-89.269491,
145,Health care,Health,Thunder Bay,Thunder Bay Regional Health Sciences Centre - Linear Accelerator (LINAC) Service Expansion and Positron Emission Tomography-computed tomography (PET-CT) Relocation,Under construction,2024,na,na,Thunder Bay,980 Oliver Rd,P7B 6V4,,"$9,297,400",,Yes,,Yes,,48.428793,-89.269491,
146,Health care,Health,Thunder Bay District,Ontario Agency For Health Protection And Promotion - Thunder Bay Public Health Ontario Laboratory Leasehold Improvement Project,Planning,June 2027,na,na,Thunder Bay,336 Syndicate Ave S,P7E 1E3,,0,,Yes,,,,48.37949611,-89.247545,
147,Health care,Health,Timmins,Centre De Sante Communautaire de Timmins - New Build Project,Under construction,May 2025,Construction of a new purpose-built CHC facility to serve the Francopone population in Timmins ,"The new facility will that expand program space and services and improve access to quality primary care, mental health,  physiotherapy, dietician services, and early childhood education.",Cochrane,120 Kent Avenue,P4N 7S4,,"$16,722,000",,Yes,,,,48.47158417,-81.33884449,
148,Communities,Infrastructure,Animbiigoo Zaagi’igan Anishinaabek (Lake Nipigon Ojibway) First Nation,Water Supply and Feasibility Study,Complete,December 2019,Conduct a water supply/water treatability study to determine the best solution for developing an effective and reliable water supply.,An effective and reliable water supply.,Thunder Bay,,,,"$56,250",,Yes,Yes,Yes,,49.72373,-88.61453,
149,Communities,Infrastructure,Anishinaabeg of Naongashiing First Nation,Equipment Upgrades at Water Treatment Plant ,Complete,June 2022,"Install new pumps,  in-line chlorine analyzer and turbidity analyzer, and replace Greensand media with Greensand Plus media. ",More secure drinking water and reduced used of chemicals.,Rainy River,,P0W 1J0,,"$42,753",,Yes,Yes,Yes,,49.097745,-94.315207,
150,Communities,Infrastructure,Anishinaabeg of Naongashiing First Nation,Equipment Upgrades at Wastewater Treatment Plant ,Complete,June 2022,"Replace transfer pump, leaking valves and pipes, install pressure washer and gas detection equipment. ",Improved protection to Lake of the Woods from sewage spills. ,Rainy River,,P0W 1J0,,"$17,625",,Yes,Yes,Yes,,49.097745,-94.315207,
151,Communities,Infrastructure,Anishinaabeg of Naongashiing First Nation,Councillors' Houses and Meeting Grounds Water treatment Plant Equipment Upgrades,Complete,June 2022,"Replace well pump, install chlorine analyzer and alarm, and replace pressure tank. ",Safer and more secure water supply. ,Rainy River,,P0W 1J0,,"$24,000",,Yes,Yes,Yes,,49.097745,-94.315207,
152,Communities,Infrastructure,Anishinaabeg of Naongashiing First Nation,Equipment Upgrades at Sewage Pumping Station,Complete,June 2022,Install bollards to protect electrical panel.,Reduced risk of pump failure due to traffic damage to panel and thus sewage from overflowing at station. ,Rainy River,,P0W 1J0,,"$2,250",,Yes,Yes,Yes,,49.097745,-94.315207,
153,Communities,Infrastructure,Anishinaabeg of Naongashiing First Nation,Anishinaabeg of Naongashiing Sewage Lagoon,Planning,2023,"The Project will construct a new sewage lagoon with clay liner to replace the existing wastewater treatment plant in the Anishinaabeg of Naongashiing First Nation.The work will include clearing and preparing an undeveloped site for the lagoon, excavating trenches for collection pipes, building an access road, constructing the lagoon and its required components including flow meters/analyzer and outfalls, installing new gravity sewers and force mains, and upgrading  the existing lift station. The existing wastewater treatment plant will also be decommissioned and deconstructed.",,Rainy River,General Delivery,P0W1J0,,0,Yes,Yes,Yes,,,49.118469,-94.313364,
154,Communities,Infrastructure,Anishinabe of Wauzhushk Onigum First Nation,Infiltration Study of Stormwater Entering the Wastewater system,Complete,March 2020,Conduct an engineering study determine the infiltration locations of stormwater into the wastewater system and indicate the required repairs. ,Improved efficiency of the facility and reduced chances of an overflow situation of wastewater into the receiving environment.,Kenora,,,,"$18,750",,Yes,Yes,Yes,,49.753298,-94.475816,
155,Communities,Infrastructure,Anishinabe of Wauzhushk Onigum First Nation,Devils Gap Lift Station Backup Generator ,Complete,March 2020,Purchase a backup generator for the lift station located near the Devils Gap Marina. ,Ensure wastewater does not enter the environment and negatively impact surrounding communities.,Kenora,,,,"$37,500",,Yes,Yes,Yes,,49.753298,-94.475816,
156,Communities,Infrastructure,Armstrong,Upgrading of Perimeter Safety and Security Fencing to Wastewater Lagoon,Complete,October 2017,Install a 6-feet high chain link fence complete with gates.,More secure facility.,Timiskaming,126901 Church Road,P0J 1E0,,"$61,667",Yes,Yes,Yes,,,47.711149,-79.885225,
157,Communities,Infrastructure,Armstrong,Rehabilitation of Well # 3 ,Complete,October 2017,Replace the casing and pump at well #3.,,Timiskaming,6 th Street,P0J 1E0,,"$13,856",Yes,Yes,Yes,,,47.707251,-79.820288,
158,Communities,Infrastructure,Armstrong,Replacement of Roofing on Church Road Pumping Station Building,Complete,October 2017,Replace the asphalt shingles with a steel roof.,,Timiskaming,126901 Church Road,P0J 1E0,,"$9,627",Yes,Yes,Yes,,,47.711149,-79.885225,
159,Communities,Infrastructure,Armstrong,Earlton water treatment plant,Complete,March 2019,Remove and dispose all existing filter media and air grid laterals at the Earlton water treatment plant,,Timiskaming,"89 12th Street, Earlton ON",,,"$23,963",Yes,Yes,Yes,,,47.712832,-79.81999,
160,Communities,Infrastructure,Aroland First Nation,Aroland First Nation Sewage Lagoons Remediation,Complete,August 2022,Remediate the existing lagoons to deal with issues of new vegetation and remove the solid materials that are filling the lagoon to capacity. ,Limit untreated wastewater entering the environment and negatively impacting surrounding communities. ,Thunder Bay,,P0T 2H0,,"$49,125",,Yes,Yes,Yes,,50.166667,-86.7,
161,Communities,Infrastructure,Assiginack,Water and Wastewater Rehabilitation,Complete,March 2019,"Various upgrades, repairs and installation of equipment at the Manitowaning water treatment plant.",Improved water services.,Manitoulin,2 Bay street,P0P 1N0,,"$88,163",Yes,Yes,Yes,,,45.861,-81.8516,
162,Communities,Infrastructure,Atikameksheng Anishnawbek First Nation,Atikameksheng Anishnawbek Septic & Watermain Upgrade,Planning,2021,The project is for the improvement of septic systems and water distribution in the Atikameksheng Anishnawbek First Nation. The work will replace approximately 300 meters of watermain (including necessary connections and service line to residences and commissioning); and approximately 35 septic systems. The work also includes the addition of a fire hydrant and re-pavement of half the roadway along Maani Street impacted by watermain work.,,,25 Reserve Road,P0M2M0,,0,Yes,Yes,Yes,,,"46.398007
",-81.17725,
163,Communities,Infrastructure,Atikokan,Atikokan Sewage Treatment Plant Rehabilitation,Complete,December 2020,Updating sewage treatment plant ,"Plant to have new processing equipment, SCADA control system, roof and other architectural replacements",Rainy River,601 Mackenzie Ave W,P0T 1C0,,"$2,888,488",Yes,Yes,Yes,,,48.75622,-91.632316,
164,Communities,Infrastructure,Atikokan,Sewage Pump Station 7 Rehabilitation,Complete,October 2019,Capacity upgrades to Sewage Pump Station #7.,Minimized risk of contamination,Rainy River,132 West St,P0T 1C0,,"$1,525,500",Yes,Yes,,,,48.75556,-91.62217,
165,Communities,Infrastructure,Atikokan,Atikokan Sewage Works Rehabilitation,Complete,December 2021,The Project will rehabilitate five (5) sewage pumping stations in Atikokan. The work will replace motorized valves and new flow meters at five (5) pumping stations as well as update mechanical and electrical systems along with control programming to improve monitoring and operations.,"Improved efficiency and capacity of wastewater treatment in the Town of Atikokan, and better to protection of  the Atikokan River.",Rainy River,120 Marks Street,P0T1C0,,0,Yes,Yes,Yes,,,48.75563,-91.632807,
166,Communities,Infrastructure,Attawapiskat First Nation,Repairs and Upgrades at Water Treatment Plant,Under construction,2024,Repair and upgrade various equipment at the water treatment plant. ,More secure and safer drinking water.,Kenora,,,,"$130,500",,Yes,Yes,Yes,,52.925885,-82.428892,
167,Communities,Infrastructure,Attawapiskat First Nation,Repairs and Upgrades to Sewage Lagoon,Under construction,2024,"Cut brush and vegetation, repair erosion on berm bank, repair fence and install gate. ",Improved environmental protection.,Kenora,,,,"$22,575",,Yes,Yes,Yes,,52.925885,-82.428892,
168,Communities,Infrastructure,Attawapiskat First Nation,Repairs and Upgrades at Sewage Lift Station,Complete,March 2021,"Repair Pump #1, sandblast rusting pipe inside station and repaint, replace missing valve covers, clean interior of lift station and clean and flush lift station components. ",More secure and safer drinking water.,Kenora,,,,"$5,475",,Yes,Yes,Yes,,52.925885,-82.428892,
169,Communities,Infrastructure,Attawapiskat First Nation,Repairs and Upgrades at Sewage Pumping Station,Complete,March 2021,"Repair pump #2, install flush valve, reattach lifting davit socket to station, replace missing bolts on lift station cover. ",Improved environmental protection.,Kenora,,,,"$9,375",,Yes,Yes,Yes,,52.925885,-82.428892,
170,Communities,Infrastructure,Aundeck-Omni Kaning First Nation,Rehabilitation of Water Treatment Plant.,Complete,December 2022,"Replace the supervisory control and data acquisition  system, and replace the ozone generators and controllers.",Safer drinking water operations.,,16 Wabuno Road,P0P 1K0,,"$99,114",,Yes,Yes,Yes,,45.958157,-81.994708,
171,Communities,Infrastructure,Baldwin,Slope Excavation ,Complete,December 2017,"Excavate slope, apply geosynthetic clay liner, backfill, and regrade slope at the Baldwin Township Exfiltrating Lagoon.",Compliance with standards and environmental requirements.,Sudbury,,,,"$75,000",Yes,Yes,Yes,,,46.312967,-81.749889,
172,Communities,Infrastructure,Batchewana First Nation First Nation,Old Garden River Road Water Supply,Complete,August 2020,Conduct a water feasibility study to address poor water quality for these residence. ,"Safe, reliable drinking water.",,Old Garden River Road, P6A 6J,,"$46,500",,Yes,Yes,Yes,,46.551549,-84.292434,
173,Communities,Infrastructure,Big Grassy First Nation,Septic System Replacements,Complete,August 2018,Replace 8 individual septic systems (tank and field) which have exceeded their design life.,"Proper treatment of waste, prevent backups of raw sewage back into the homes, and reduced  contamination in nearby environment. ",Rainy River,,,,"$91,516",,Yes,Yes,Yes,,49.097745,-94.315207,
174,Communities,Infrastructure,Black River-Matheson,Upgrade Programmable Logic Controller (PLC),Complete,November 2018,Replace the water plant's control system.,,Cochrane,644 Euclid Avenue,,,"$75,000",Yes,Yes,Yes,,,48.4643,-80.2783,
175,Communities,Infrastructure,Blind River,Sewage Treatment Plant Upgrades,Complete,March 2018,"Includes replacement of aeration system, plant controls (SCADA) and disinfection system",Improved quality of drinking water and reduced risk of environmental contamination,Algoma,15 Martin Street,P0R 1B0,,"$1,339,842",Yes,Yes,Yes,,,46.18631,-82.95718,
176,Communities,Infrastructure,Blind River,Wishart Street Sanitary Sewer Rehabilitation,Complete,December 2017,"Rehabilitation of sanitary sewers, water main, hydrants, valves, and surface drainage works and roadway restoration.",,Algoma,,,,"$617,584",Yes,Yes,Yes,,,46.184717,-82.953973,
177,Communities,Infrastructure,Bruce Mines,Study  of the Town's Wastewater Collection System ,Complete,June 2018,Assess the condition of the sewer system and  identify any infiltration or other issues so corrective actions can be done.,,Algoma,9126 Highway 17, P0R 1C,,"$19,050",Yes,Yes,Yes,,,46.30025,-83.793716,
178,Communities,Infrastructure,Bruce Mines,Aeration System for the Treatment of High Levels of THMs ,Complete,December 2017,Install a new aeration system to lower the levels of trihalomethanes at the pumping/booster station.,Lowed levels of trihalomethanes and other volatile compounds in the water such as hydrogen sulfide and carbon dioxide.,Algoma,9238 Highway 638,P0R 1C0,,"$26,250",Yes,Yes,Yes,,,46.305553,-83.778437,
179,Communities,Infrastructure,Brunswick House First Nation,New Generator at Water Treatment Plant,Complete,July 2018,Install a back-up generator capable of uninterrupted operation of the water treatment plant and when there are power interruption.,Continued operations during power failures.,,,,,"$63,750",,Yes,Yes,Yes,,47.840524,-83.399761,
180,Communities,Infrastructure,Brunswick House First Nation,Repair Sand Filter,Complete,July 2018,Repair the green sand filter and replenish the filter media. ,Ensure availability of  safe reliable drinking water.,,,,,"$24,396",,Yes,Yes,Yes,,47.840524,-83.399761,
181,Communities,Infrastructure,Brunswick House First Nation,Brunswick House Water Treatment System Upgrade,Planning,2024,"The project will upgrade components of a water treatment facility and complete upgrades to the reservoir in the Brunswick House First Nation in order to reduce the formation of Disinfection Byproducts and provide additional water quality security for water storage. The work will involve a building addition to house a new ozone pre-treatment system and installation of an exterior, below grade contact pipe. Upgrades within the existing facility include ultraviolet equipment, sand filter underdrains replacement and updates to the existing chlorination system. In addition, an epoxy coating will be applied to the interior of the reservoir and a dedicated back up generator for the fire pump will be provided.",,,P.O. Box 1178,P0M1K0,,0,Yes,Yes,Yes,,,47.83488,-83.32558,
182,Communities,Infrastructure,Burk's Falls,Burk's Falls Water System Improvements,Complete,March 2018,"Upgrading water system, including replacement steel storage tank and a new building to house an electronic instrument system",Reduced maintenance cost and additional capacity to accommodate future development and additional connections,Parry Sound,Main St,P0A 1C0,,"$993,758",Yes,Yes,Yes,,,45.618918,-79.405937,
183,Communities,Infrastructure,Burk's Falls,Ontario Street Rehabilitation,Complete,June 2019,Replacement of watermain along Ontario Street.,Safer drinking water,Parry Sound,Ontario Street (Bridge to Huston St),P0A 1C0,,"$1,633,936",Yes,Yes,,,,45.616777,-79.406654,
184,Communities,Infrastructure,Burk's Falls,Rehabilitation of Wastewater Collection System Pipes and Pumping Stations,Complete,November 2017,Clean and reline the collection pipes for the 43 year old wastewater system.,Increased lifespan of the collection system for an expected 30 years as well as the long term capacity of the lagoons.  ,Parry Sound,172 Ontario Street,P0A 1C0,,"$81,578",Yes,Yes,Yes,,,45.618635,-79.407819,
185,Communities,Infrastructure,Callander,"Sewage system optimization study, planning and design.       ",Complete,September 2019,"Investigative, planning and design works associated with inflow and infiltration and optimizing the existing lagoon treatment system.",Increased capacity and reduced lagoon system overflows.,Parry Sound,,,,"$106,971",Yes,Yes,Yes,,,46.237128,-79.391349,
186,Communities,Infrastructure,Casey,Replacement and relocation of manhole,Complete,December 2018,Relocate a manhole,,Timiskaming,,,,"$75,000",Yes,Yes,Yes,,,47.652767,-79.577883,
187,Communities,Infrastructure,Central Manitoulin,Replacement of the Programmable Logic Controller at the Mindemoya Water Treatment Plant,Complete,January 2019,Replace the programmable logic controller. ,,Manitoulin,61 Old Hwy 551, P0P 1S,,"$161,250",Yes,Yes,Yes,,,45.744739,-82.167986,
188,Communities,Infrastructure,Chapleau,Reconstruction of Lansdowne Street,Complete,February 2018,Reconstruction of Lansdowne Street.,Safer drinking water,Sudbury,Lansdowne Street,P0M 1K0,,"$1,866,121",Yes,Yes,,,,47.842403,-83.399159,
189,Communities,Infrastructure,Chapleau,Removal of Piping and Dewatered Sludge from Cell #1,Complete,December 2019,"Remove the obsolete aeration pipes, and an estimated 110 dry tonnes of sludge and dispose of the dewatered sludge.",,Sudbury,300 Strathcona Avenue,P0M 1K0,,"$144,588",Yes,Yes,Yes,,,47.691139,-82.721258,
190,Communities,Infrastructure,Chapleau Cree First Nation,Detailed Water Treatment System Assessment and Infrastructure Planning,Complete,October 2020,"Conduct a detailed water system assessment and infrastructure planning for the community, as needed to plan for the next 20 years. ",This assessment will help identify the next steps towards creating a safe drinking water system in accordance with provincial and federal regulations.,,,,,"$78,861",,Yes,Yes,Yes,,47.812636,-83.445616,
191,Communities,Infrastructure,Chapleau Ojibway First Nation,Chapleau Objibwe First Nation Water Treatment Plant Equipment Upgrade.,Complete,July 2020,"Replace 3 pressure tanks, repair the generator, replace the uninterruptible power supply (UPS) battery backup,  upgrade a computer, replace  bulbs for the UV units, etc. ",,,,,,"$77,048",,Yes,Yes,Yes,,47.82814,-83.40577,
192,Communities,Infrastructure,Chapple,Upgrade to main outlet pipe,Complete,November 2017,Install pipes and cleanouts and construct new concrete outflow structure at the Chapple Lagoon.,,Rainy River,,,,"$75,000",Yes,Yes,Yes,,,48.64226,-93.978147,
193,Communities,Infrastructure,Charlton and Dack,Replacement of  high lift pumps ,Complete,August 2018,"Replace the existing high-lift pumps with new, more efficient ones at 50 Agnes Street, Charlton. ","Enhanced safety, less maintenance and reduction in electricity costs.",Timiskaming,50 Agnes Street,P0J 1B0,,"$30,750",Yes,Yes,Yes,,,47.81073,-79.996216,
194,Communities,Infrastructure,Charlton and Dack,Installation of Variable Frequency Drive control units ,Complete,August 2018,Install  a new variable frequency drive at 50 Agnes Street.,"Reduced electricity consumption, enhanced reliability of the high-lift system, stabilization of the output pressure to the town. ",Timiskaming,50 Agnes Street,P0J 1B0,,"$30,000",Yes,Yes,Yes,,,47.81073,-79.996216,
195,Communities,Infrastructure,Charlton and Dack,Installation of a  flow meter,Complete,August 2018,Install a new 4-inch treated water flow meter to replace the existing 2-inch treated water flow meter.,Provide enough water to accommodate fire hydrants in the future and save energy by reducing system friction loss.,Timiskaming,50 Agnes Street,P0J 1B0,,"$5,250",Yes,Yes,Yes,,,47.81073,-79.996216,
196,Communities,Infrastructure,Charlton and Dack,Install low lift pumps,Complete,August 2018,Purchase and install 2 raw water low-lift pumps.,"Better management of demand, reduced maintenance and extended life for the pumps.",Timiskaming,50 Agnes Street,P0J 1B0,,"$6,000",Yes,Yes,Yes,,,47.81073,-79.996216,
197,Communities,Infrastructure,Charlton and Dack,Replacement of Blow off Valves,Complete,August 2018,Replace the blow off valves within the Charlton and Bradley water distribution systems.,Safer and better quality water.,Timiskaming,50 Agnes Street,P0J 1B0,,"$3,000",Yes,Yes,Yes,,,47.81073,-79.996216,
198,Communities,Infrastructure,Charlton and Dack,Clarksville Watermain Reconstruction,Complete,March 2018,Reconstruction of the Clarksville subdivision watermain.,Safer drinking water,Timiskaming,"Ninth Street, Tenth Street",P0J 1H0,,"$1,260,170",Yes,Yes,,,,47.830007,-79.889862,
199,Communities,Infrastructure,Chisholm,Replacement of Stormwater Culvert on Wasing Road.,Complete,December 2018,Replace the stormwater culvert on Wasing Road.,,Nipissing,,,,"$37,500",Yes,Yes,Yes,,,46.114499,-79.177907,
200,Communities,Infrastructure,Chisholm,Replacement of Stormwater Culvert on Maple Road.,Complete,December 2018,Replace the stormwater culvert on Maple Road.,,Nipissing,,,,"$37,500",Yes,Yes,Yes,,,46.114499,-79.177907,
201,Communities,Infrastructure,Cobalt,Install a chlorine analyzer loop,Complete,September 2017,Install a chlorine analyzer loop..  ,,Timiskaming,1 Pumphouse Road, P0J1C0,,"$75,000",Yes,Yes,Yes,,,47.399902,-79.678894,
202,Communities,Infrastructure,Cobalt,Cobalt Wetland Lagoon System Condition Assessment and Feasibility Study,Complete,March 2020,Complete a condition assessment of the Cobalt wetland lagoon system and a feasibility study of further work to enhance the quality of lagoon effluent.,,Timiskaming,Hudson Bay Road,,,"$22,500",Yes,Yes,Yes,,,47.400067,-79.683092,
203,Communities,Infrastructure,Cobalt,Pumphouse Road Water Treatment Plant Upgrades ,Complete,July 2016,Upgrade the SCADA system including a Hewlett Packard tower and chart recorder to monitor plant parameters.,,Timiskaming,1 Pumphouse Road, P0J1C0,,"$12,000",Yes,Yes,Yes,,,47.399902,-79.678894,
204,Communities,Infrastructure,Cobalt,Pumphouse Road Water Treatment Plant chlorination system replacement,Complete,December 2017,Install a new chlorination system.,,Timiskaming,1 Pumphouse Road, P0J1C0,,"$17,250",Yes,Yes,Yes,,,47.399902,-79.678894,
205,Communities,Infrastructure,Cobalt,Pumphouse Road Water Treatment Plant Backwash and Progress Valves Replacement,Complete,May 2018,Replace water pressure valves.,,Timiskaming,1 Pumphouse Road, P0J1C0,,"$30,000",Yes,Yes,Yes,,,47.399902,-79.678894,
206,Communities,Infrastructure,Cobalt,Cobalt Water Treatment Plant,Complete,August 2018,"Upgrades to the Cobalt Water Treatment Plant, including refurbishment of the water tower.",Safer drinking water,Timiskaming,,P0J 1C0,,"$1,638,476",Yes,Yes,,,,47.4004,-79.679474,
207,Communities,Infrastructure,Cobalt,Pumphouse treatment plant flow meter,Complete,November 2018,Replace the flow meter,,Timiskaming,1 Pumphouse Road, P0J1C0,,"$12,000",Yes,Yes,Yes,,,47.399902,-79.678894,
208,Communities,Infrastructure,Cochrane,Disinfection and Preliminary Treatment  Upgrades,Complete,March 2020,Install either UV or chemical injection for effluent disinfection and reconfigure the headworks.,Better ability to accommodate higher flows during spring freshet and storm events.,Cochrane,100 Eighth Street, P0L 1C,,"$520,361",Yes,Yes,Yes,,,49.068233,-81.027663,
209,Communities,Infrastructure,Cochrane,5th Avenue - Sanitary and Storm System Re-construction,Planning,2024,"This project is for the rehabilitation of aging stormwater and sanitation infrastructure in the Town of Cochrane. The work will include rehabilitating and replacing approximately 840 metres of sanitary sewer; constructing approximately 240 metres of storm sewers; 7 manholes and 7 catch basins, watermain; and improving approximately 330 metres of road with new subgrade and asphalt, drainage curbs, gutters and sidewalks.  The project is comprised of the replacement/upgrade of the sanitary conveyance system from 5th Avenue traveling east into the laneway of 5th/6th Avenue, south to 5th Street and north to 6th Street, the rehabilitation of the sanitary main running eastward from First Avenue to Fifth Avenue, as well as the replacement/upgrade of the storm water drainage system running from 5th Avenue along 6th Street, coupled with a new storm sewer outflow into Lilly Lake north of 6th Street.  This project also includes re-construction of a portion of 5th Avenue and partial re-construction /rehabilitation of 6th Street.",,Cochrane,171 Fourth Avenue,P0L1C0,,0,Yes,Yes,Yes,,https://www.news.ontario.ca/en/release/1000459/canada-and-ontario-invest-over-29-million-in-19-green-infrastructure-projects,49.03,-81.01,
210,Communities,Infrastructure,Cochrane District,Replacement of wastewater/sewer pipe on Jacques Street up to lagoon site.,Complete,December 2017,Repair and replace key sections of pipes throughout the community and repair the roadway and resurface with pavement and gravel.,,Cochrane,25 Jacques Street,P0L 1L0,,"$75,000",Yes,Yes,Yes,Yes,,49.660522,-83.560158,
211,Communities,Infrastructure,Coleman,Installation of three Bleeder Stations,Complete,August 2018,Install bleeder stations to allow a small amount of water to run through the lines to mitigate line freezing in the winter months. ,Mitigate the water main from  freezing for 48 users/households.,Timiskaming,,,,"$71,250",Yes,Yes,Yes,,,47.359402,-79.759219,
212,Communities,Infrastructure,Conmee,Culvert Construction and Rehabilitation ,Complete,December 2017,"Install new culverts, upgrade gravel and and  rehabilitate Hunt Road West to create a new crown on  to manage storm water and drainage on Hunt Road. ",Proper storm water drainage.,Thunder Bay,,,,"$75,000",Yes,Yes,Yes,,,48.442134,-89.638485,
213,Communities,Infrastructure,Constance Lake First Nation,Optimizing Seasonal Lagoons Discharge.,Complete,December 2022,Feasibility study to determine if gravity discharge of the lagoons is possible or if installing bigger pumps is the best solution in order to be able to discharge seasonally.,Ensure that untreated wastewater does not enter the environment and negatively impact surrounding communities.,,,P0L 1B0,,"$56,250",,Yes,Yes,Yes,,49.809822,-84.128664,
214,Communities,Infrastructure,Constance Lake First Nation,Seasonal wastewater lagoon optimization ,Complete,March 2023,Upgrade the seasonal wastewater lagoon to be able to discharge the seasonal wastewater according to regulation.,Ensure that untreated wastewater does not enter the environment and negatively impact surrounding communities.,,,P0L 1B0,,"$74,508",,Yes,Yes,Yes,,49.809822,-84.128664,
215,Communities,Infrastructure,Couchiching First Nation,Water and Wastewater Servicing Feasibility Study,Complete,March 2020,Assess the feasibility of Couchiching First Nation having a standalone water treatment system and/or wastewater treatment system.,Assist the Town of Fort Frances with future planning exercises related to water infrastructure. ,,, P9A 3M,,"$121,179",,Yes,Yes,Yes,,48.633296,-93.364709,
216,Communities,Infrastructure,Couchiching First Nation,Couchiching First Nation Stormwater Management Infrastructure Upgrades,Planning,2023,"This Project will improve stormwater management in the Couchiching First Nation. The work includes topographical and geotechnical surveys, regrading approximately 10 kilometers of road for water diversion, clearing and expanding ditches, clearing or upsizing approximately 150 culverts, and treating and improving the quality of stormwater effluent by introducing wetland plants and swales.",,,107 Highway 11,P9A3M3,,0,Yes,Yes,Yes,,,48.634167,-93.359722,
217,Communities,Infrastructure,Dawson,Campbell Municipal Drain Upgrade,Complete,October 2019,Upgrade the drain along River Road and Jenkins Drive.,Stabilized drain banks and improved safety along the 2 roadways.,Rainy River,,,,"$75,000",Yes,Yes,Yes,,,48.8279,-94.6191,
218,Communities,Infrastructure,Deer Lake First Nation,Rebuild Primary Clarifier Drive System,Complete,August 2021,"Replace clarifier rakes, gear box and  motor. ",Ensure that safe reliable drinking water is available.,,,,,"$78,750",,Yes,Yes,Yes,,52.617,-94.067,
219,Communities,Infrastructure,Dokis First Nation,Update the current Capital Planning Study ,Complete,February 2020,Complete the planning and research necessary to complete a well drilling program to develop a better long term suitable raw water supply for Dokis First Nation's water plant. ,Ensure that safe reliable drinking water is available.,,,,,"$82,664",,Yes,Yes,Yes,,46.13,-80.033056,
220,Communities,Infrastructure,Dokis First Nation,Lagoon Expansion,Planning,November 2025,"The Project will rehabilitate and expand the wastewater lagoon in the Dokis First Nation. The work includes designing and constructing modifications to the existing lagoon cell and construction of a new lagoon cell for expanded capacity. The modifications will involve implementation of a pre-treatment system, installation of electricity on-site to power the pre-treatment system, the addition of separation membranes to channel wastewater flow and expansion of the lagoon’s capacity.","Enable the lagoon to meet current federal and provincial discharge requirements, reduce the accumulation of wastewater sediment and help meet current and future wastewater treatment demands.",,940 MAIN Street,P0M2N1,,0,Yes,Yes,Yes,,,46.120627,-80.058629,
221,Communities,Infrastructure,Dorion,Reconstruction Ditches and Culverts on the Fish Hatchery Road.,Complete,September 2020,Reconstruct open roadside ditches and install new culvert installations. ,"Improved clean, healthy water quality in receiving streams as well as reduce flow rates  during heavy rainfall and spring run-off events.",Thunder Bay,,,,"$74,738",Yes,Yes,Yes,,,48.823553,-88.578911,
222,Communities,Infrastructure,Dryden,Raw Water Intake Pipe Twinning,Complete,March 2018,Upgrades to the drinking water system.,Safer drinking water,Kenora,250 Wilde Street,,,"$1,300,000",Yes,Yes,Yes,,,49.765937,-92.8111,
223,Communities,Infrastructure,Dryden,Water Treatment Plant Condition Analysis,Complete,April 2018,"Assess the  condition of all piping, concrete tanks, pumps, filters, mechanical systems, and electrical panels/wiring.",Assist the City of Dryden in determining if the current plant can be upgraded/refurbished or if a new water plant is required. ,Kenora,250 Wilde Street,,,"$52,500",Yes,Yes,Yes,,,49.780094,-92.836959,
224,Communities,Infrastructure,Dryden,Water Treatment Plant Multiple Turbidity Meter Upgrade,Complete,June 2017,Install five new turbidity meters.,"Ensure safe drinking water to over 3,500 households.",Kenora,250 Wilde Street,,,"$30,000",Yes,Yes,Yes,,,49.780094,-92.836959,
225,Communities,Infrastructure,Dryden,Multiple Structural Relining of Watermains  at 5 Locations,Complete,December 2019,Structural Upgrade of 5 watermains crossing underneath the Canadian Pacific Railway (CPR) tracks/yard within the limits of the City of Dryden.,Reduced risk of leaks or breakage.,Kenora,250 Wilde Street,,,"$300,000",Yes,Yes,Yes,,,49.780094,-92.836959,
226,Communities,Infrastructure,Dryden,Structural Relining of 4 Sanitary Sewers,Complete,March 2019,"Reline approximately 2,200 m of pipe in various locations. ",Reduced risk of further deterioration of the host pipe and avoid any further collapses or blockages.,Kenora,,,,"$318,750",Yes,Yes,Yes,,,49.780094,-92.836959,
227,Communities,Infrastructure,Dryden,Sanitary Sewer Manhole Relining,Complete,September 2017,Relining a number of manholes at various locations. ,prolong the life of the asset.,Kenora,,,,"$45,000",Yes,Yes,Yes,,,49.780094,-92.836959,
228,Communities,Infrastructure,Dryden,Replacement of Storm Sewer Pipe on Van Horne Avenue,Complete,June 2018,Replace the stormsewer on Van Horne Avenue south of Goodall Street to 300 Van Horne Ave.,Increased flow and reduced risk of sinkholes/potholes.,Kenora,,,,"$75,000",Yes,Yes,Yes,,,49.780094,-92.836959,
229,Communities,Infrastructure,Dryden,Land Implementation Study Update ,Complete,December 2018,"Update the 2004 City of Dryden and implementation study for water, wastewater, and stormsewer. ",This will assist the City in updating their AMP by identifying problem areas in the system.,Kenora,30 Van Horne Ave,,,"$67,500",Yes,Yes,Yes,,,49.78376,-92.83689,
230,Communities,Infrastructure,Dubreuilville,Water Treatment Plant Repairs,Complete,March 2019,Inspect and repair or replace valves and piping in pump house due to leaks.,,Algoma,"118 Heliport Road, ",,,"$31,521",Yes,Yes,Yes,,,48.348505,-84.550825,
231,Communities,Infrastructure,Dubreuilville,Water Treatment Plant Repairs,Complete,October 2018,Perform engineering study to design and install a contact time return line from contact chamber to analyzer.  ,Reduced boil water advisories and ensure a more stable water quality.,Algoma,,,,"$11,250",Yes,Yes,Yes,,,48.345606,-84.556797,
232,Communities,Infrastructure,Dubreuilville,Water Distribution Repairs ,Complete,November 2017,Replace seals and valves for 2 hydrants that are leaking badly in the distribution system.,,Algoma,,,,"$15,000",Yes,Yes,Yes,,,48.348333,-84.547667,
233,Communities,Infrastructure,Dubreuilville,Water distribution maintenance - Swabbing of our distribution system for the entire community which is 5 km.,Complete,March 2019,Perform swabbing on 5 km of water distribution system.,Reduced  occurrences of discoloured water and to ensure safe drinking water.,Algoma,"23, rue des Pins", P0S 1B,,"$18,981",Yes,Yes,Yes,,,48.292463,-84.604863,
234,Communities,Infrastructure,Eabametoong First Nation,Sewage Lift Station Expansion,Complete,October 2019,Expand the sewage lift station.,Ensure that untreated wastewater does not enter the environment and negatively impact surrounding communities,,Eabamet Lake,,,"$130,077",,Yes,Yes,Yes,,51.5559,-87.9865,
235,Communities,Infrastructure,Eagle Lake First Nation,Eagle Lake Watermain Upgrade,Complete,December 2019,Improvements to the water distribution system on the Eagle Lake First Nation. ,Safer drinking water,,Ojibway Drive and Aspen Avenue,P0V 3H0,,"$1,220,000",,Yes,Yes,Yes,,49.737113,-93.057569,
236,Communities,Infrastructure,Eagle Lake First Nation,Membrane Filter Replacement ,Complete,March 2018,Replace the worn water treatment plant membrane filters.,Increased potable water production for community demand and fire protection.,,1001 Ojibway Drive,P0V 3H0,,"$98,453",,Yes,Yes,Yes,,49.734038,-93.055817,
237,Communities,Infrastructure,Ear Falls,Clarifier Rehabilitation ,Complete,October 2018,"Replace the interior mechanical components, and replace the roof  and insulation of the structure at the Ear Falls wastewater treatment Plant.",,Kenora,44 Chestnut Street,,,"$348,041",Yes,Yes,Yes,,,50.633361,-93.250583,
238,Communities,Infrastructure,East Ferris,Stormwater Collection and Conveyance System and Culvert Upgrading,Complete,June 2018,Install approximatel 20 meters of new culvert. ,,Nipissing,,,,"$75,000",Yes,Yes,Yes,,,46.30928,-79.291061,
239,Communities,Infrastructure,Elliot Lake,Repair of Waste Water Pumping Systems ,Complete,August 2019,"Remove, reconstruct and reinstall 5 lift screws as well as install solid covers to insulate, dampen noise and protect concrete structures from the environment. ",,Algoma,2 Scott Road,P5A 1X5,,"$298,115",Yes,Yes,Yes,,,46.386179,-82.650941,
240,Communities,Infrastructure,Emo,Upgrade to the Main Sewage Pumping Station,Complete,November 2019,"Replace all the internal components of the sewage lift station, including the pumps, steel piping and controls.",Reduced risk of failure of the piping network and pumping system.,Rainy River,,,,"$130,683",Yes,Yes,Yes,,,48.628056,-93.831944,
241,Communities,Infrastructure,Emo,Upgrade to Existing Water Treatment Plant ,Complete,November 2019,"Replace the 2 pumps and flow meter, which are critical to supplying water to the approximate 1,300 residents of the town.",,Rainy River,,,,"$33,750",Yes,Yes,Yes,,,48.628611,-93.834167,
242,Communities,Infrastructure,Emo,Watermain Replacement East of the Water Treatment Plant,Complete,October 2019,"Upgrades and replacement of watermain along King Street, Hannah Street, Walker Streets, and Tyrrell Street.",Safer drinking water,Rainy River,,P0W 1E0,,"$1,564,200",Yes,Yes,,,,48.628421,-93.833526,
243,Communities,Infrastructure,Emo,Emo Water Treatment Plant Upgrades & Optimization for THM & HAA Reduction,Planning,2023,"The Project will upgrade a water treatment plant in Emo.The work will involve flushing, cleaning  and removing sand deposits from the bottom of raw water pipes, installing an intake screen, upgrading the chemical feed system, and installing an automatic switchover panel and Anion Exchange treatment solution including two pressure rated vessels, a brine tank, backwash kit, microprocessor controller and an anion exchange media.","Improve the facility's performance, lengthen its lifespan, and ensure area residents have increased access to quality drinking water and a healthier living environment.",Rainy River,39 Roy St,P0W1E0,,0,Yes,Yes,Yes,,,48.628384,-93.844125,
244,Communities,Infrastructure,Englehart,Upgrade of the main electrical system at the First Street water plant,Complete,March 2018,Replace the electrical system at the First Street water plant.  ,Improved energy efficiency and reduce plant failures thereby reducing incidents of loss of water and loss of fire protection.  ,Timiskaming,56 First Street,P0J 1H0,,"$168,750",Yes,Yes,Yes,,,47.832496,-79.868281,
245,Communities,Infrastructure,Englehart,Englehart Water and Sewer Replacement,Complete,December 2017,Replacement of water and sanitary sewer mains.,Safer drinking water,Timiskaming,Various streets,,,"$2,000,000",Yes,Yes,,,,47.828402,-79.866775,
246,Communities,Infrastructure,Englehart,Englehart Water Supply Upgrade,Planning,December 2025,"This Project will expand the drinking water supply and storage capacity in Englehart. The work will include: the construction of one additional drilled well with pump; upgrades to two existing wells; installing a new standpipe to increase water storage capacity; add variable frequency drives to well pumps to provide additional flow control capabilities; upgrade mechanical, electrical and SCADA systems to accommodate new equipment and controls; a hydrogeological investigation (aquifer study), geotechnical investigation, mechanical and piping modifications, and electrical and control modifications.",,Timiskaming,61 Fifth Ave,P0J1H0,,0,Yes,Yes,Yes,,https://www.news.ontario.ca/en/release/1000459/canada-and-ontario-invest-over-29-million-in-19-green-infrastructure-projects,47.823838,-79.866934,
247,Communities,Infrastructure,Espanola,Wastewater Treatment Plant Improvements,Complete,February 2017,"The project is for upgrades to the underground water and wastewater infrastructure in the Town of Espanola. The works include replacement of sewer lines, cast-iron waterpipes and related roadwork.","Reducing risk of sewer backups, while eliminating discoloration and odours in drinking water",Sudbury,Algoma St / Annette St,P5E 1J8,,"$2,373,164",Yes,Yes,Yes,,,46.251619,-81.765921,
248,Communities,Infrastructure,Espanola,"Water, Wastewater and Stormwater Infrastructure Rehabilitation ",Complete,July 2019,"Replace approximately 6.7 km of water lines, wastewater and necessary road work.  ",Improved water quality and fire flows.,Sudbury,"596 Second Ave, ", P5E 1C,,"$546,159",Yes,Yes,Yes,,,45.151053,-79.398193,
249,Communities,Infrastructure,Espanola,Water Infrastructure Rehabilitation ,Complete,September 2019,"Rehabilitation of water, sanitary and storm collection systems, and reconstruction of street surface on Jean, Elizabeth and Katherine Streets.",Safer drinking water,Sudbury,,P5E 1S6,,"$1,569,970",Yes,Yes,,,,46.256,-81.776,
250,Communities,Infrastructure,Evanturel,Water Servicing Options Study,Complete,August 2018,Conduct a municipal environmental assessment of the drinking water infrastructure.  ,,Timiskaming,,,,"$75,000",Yes,Yes,Yes,,,47.81883,-79.86776,
251,Communities,Infrastructure,Fauquier-Strickland,Replace raw water low lift pump,Complete,December 2018,Upgrade to a new 8.5 HP raw water low lift pump.,Improved supply of water for the 165 residential and commercial clients connected to the system.,Cochrane,12 Gravel Avenue,P0L 1G0,,"$12,157",Yes,Yes,Yes,,,49.310735,-82.039355,
252,Communities,Infrastructure,Fauquier-Strickland,Replace high lift pump,Complete,July 2018,Replace the 7.5 HP high lift pump with a new one including a variable frequency drive.,Improved continuous supply of potable water for the 165 residential and commercial users connected to the system.,Cochrane,12 Gravel Avenue,P0L 1G0,,"$27,354",Yes,Yes,Yes,,,49.310735,-82.039355,
253,Communities,Infrastructure,Fauquier-Strickland,Water plant chemical resistant exhaust fan equipment upgrade,Complete,January 2018,Install an exhaust fan.,Improved workplace safety for water plant employees.,Cochrane,12 Gravel Avenue,,,"$1,719",Yes,Yes,Yes,,,49.310735,-82.039355,
254,Communities,Infrastructure,Fauquier-Strickland,Fauquier Water Distribution System Upgrades,Complete,August 2017,"Replacement of approximately 1,000 m of watermain to a new site. ",Safer drinking water,Cochrane,"25 Grazela Road, P.O. Box 40",P0L 1G0,,"$2,000,000",Yes,Yes,,,,49.309172,-82.03589,
255,Communities,Infrastructure,Fauquier-Strickland,Fauquier Water Treatment Plant Upgrades,Complete,March 2022,Upgrades to the water treatment plant. ,Safer drinking water,Cochrane,Gravel Avenue,P0L 1G0,,"$1,757,156",Yes,Yes,Yes,,,49.311211,-82.038895,
256,Communities,Infrastructure,Fort Albany First Nation,Repairs and Upgrades at Water Treatment Plant,Complete,June 2019,"Replace the supervisory control and data acquisition system, replace on-line analyzers, fix or replace de-sludge valve, replace high-lift pump and backwash pump, replace chemical dosing pump, replace battery of generator, and fix furnace.  ",,,,P0L 1H0,,"$93,867",,Yes,Yes,Yes,,52.202764,-81.804531,
257,Communities,Infrastructure,Fort Frances,"Replacement of watermain,  sanitary sewer mains and associated service lines",Complete,March 2019,"Replacement of watermain,  sanitary sewer mains and associated service lines along  2nd Street East from Mowat Avenue to Portage Avenue",,Rainy River,,,,"$735,123",Yes,Yes,Yes,,,48.611915,-93.397074,
258,Communities,Infrastructure,Fort Frances,Reconstruction of Nelson Street,Complete,November 2018,Reconstruct the roadway on Nelson Street ,,Rainy River,,,,"$222,636",Yes,Yes,Yes,Yes,,48.607825,-93.38629,
259,Communities,Infrastructure,Fort Severn First Nation,Improve Freeze Protection on Water Main,Complete,June 2020,Replace six heat trace controllers. ,Ensure the safe/efficient supply of water to the community.,,,,,"$20,081",,Yes,Yes,Yes,,55.9907,-87.633,
260,Communities,Infrastructure,Fort William First Nation,Installation of a New Stormwater Pipe,Complete,March 2020,Install 3 corrugated steel pipe culverts and a new 200 mm diameter waterline on Mission Road.,Improved drainage and reduced flooding at the Anemeki and Mission Road Intersection.,Thunder Bay,151 Mission Road,P7J 1K7,,"$71,250",Yes,Yes,Yes,,,48.349126,-89.269099,
261,Communities,Infrastructure,Fort William First Nation,Extension of Little Lake Road Watermain,Complete,September 2018,Complete the designs for the installation of approximately 200m of  pipe to connect to the existing distribution line.,"Improved water circulation, improved water quality of stagnant water and reduced maintenance needs of the system. ",Thunder Bay,558 City Road,P7J 1K3,,"$37,500",Yes,Yes,Yes,,,48.355916,-89.258537,
262,Communities,Infrastructure,Fort William First Nation,Extension of Water Distribution and Fire Protection Improvements,Complete,March 2020,Complete the designs for Quarry Road watermain fire hydrant extension to provide sufficient safety provisions for fire suppression of the existing housing development. ,"Ensure safe reliable drinking water, and  that fire system installation is properly completed.",Thunder Bay,1 Quarry Road,P7J 1K4,,"$29,250",Yes,Yes,Yes,,,48.35243,-89.286188,
263,Communities,Infrastructure,French River,Assessment of Noelville Wastewater/Stormwater Infrastructure Upgrades ,Complete,March 2020,"Develop an assessment, feasibility and detailed engineering plan for the rehabilitation and upgrade of the wastewater and stormwater infrastructure in the community of Noelville.",,Sudbury,"Hwy 535/Hwy 64 Junction, Noelville P0M 2N0",P0M 2N0,,"$75,000",Yes,Yes,Yes,,,46.119324,-80.404602,
264,Communities,Infrastructure,Garden River First Nation,Upgrades and Repairs at the Garden River Water Treatment Plant,Complete,June 2023,"Repair or replace the online turbidity analyzer,  flow meter, online chlorine analyzer, and building structure.  Install a new colorimeter, chemical dosing pump and panel,  computer and printer, and additional operator and maintenance space and washroom .",,Algoma,7 Shingwauk Street, P6A 7B,,"$65,250",,Yes,Yes,Yes,,46.536723,-84.149825,
265,Communities,Infrastructure,Garden River First Nation,Echo River Water Treatment Plant,Complete,September 2023,"Extend the reservoir, upgrade the pump and pressure tanks, replace the chlorine dosing panel.",Increased safety and security of water supply.,Algoma,127 Echo River Road,P6A 7A8,,"$42,750",,Yes,Yes,Yes,,46.527133,-84.099507,
266,Communities,Infrastructure,Garden River First Nation,Design for Servicing for New Subdivision,Complete,March 2023,"Complete a study and design for water, sewage, and stormwater servicing for a planned 74-lot subdivision. ",,Algoma,,,,"$30,000",,Yes,Yes,Yes,,46.547014,-84.1421,
267,Communities,Infrastructure,Garden River First Nation,Hydrogeological Groundwater Study and New Well,Complete,September 2023,"Conduct a hydrogeological study for groundwater to determine well yields of existing potable water wells, including installing a second well at Echo River water treatment plant.",Enhanced protection to the receiving environment and aquifer.,Algoma,7 Shingwauk Street, P6A 7B,,"$17,730",,Yes,Yes,Yes,,46.536723,-84.149825,
268,Communities,Infrastructure,Garden River First Nation,Replacement of Drinking Water Pipes in the Block subdivision in the Village at Garden River First Nation,Planning,2023,"This project is for the replacement of a watermain and the installation of 12 new fire hydrants in the Block subdivision on Green Sky Street, Wigwaus Street, Gemah Street, and Highway 17B in Garden River First Nation. The work includes replacing approximately five kilometres of two-inch pipe with six-inch pipe, installing isolation valves at all ""tee"" and ""cross"" pipe intersections as well as approximately 300 metre intervals on straight runs; and installing 12 new fire hydrants.",,Algoma,7 Shingwauk Street,P6A6Z8,,0,Yes,Yes,Yes,,,46.551,-84.149,
269,Communities,Infrastructure,Gauthier,Engineering Rehabilitation Studies,Complete,December 2019,Conduct engineering rehabilitation studies and recommended works on existing stormwater and wastewater infrastructure at various locations in Dobie.,The results of the study are going to lead to the rehabilitation of the system. ,Timiskaming,30 McPherson St,P0K 1B0,,"$63,750",Yes,Yes,Yes,,,48.134067,-79.82533,
270,Communities,Infrastructure,Gauthier,McPherson Street Forcemain and Pumping Station,Complete,November 2019,"Replacement of sanitary forcemain on McPherson Street, as well as the reconstruction of the pumping station.",Minimized risk of contamination,Timiskaming,,P0K 1B0,,"$1,677,065",Yes,Yes,,,,48.133822,-79.827547,
271,Communities,Infrastructure,Gillies,Rehabilitation of Multiple Stormwater Assets ,Complete,August 2017,"Replace and rehabilitate ditches on both sides of the road at  Badger Mine Road, Chimo Road, Couch Road, Leeper Road, Liddicoat Road, Lysak Road , Main St , ONeill Road and Prouty Road.",Improved flow of storm water.,Thunder Bay,,,,"$75,000",Yes,Yes,Yes,,,48.293763,-89.700203,
272,Communities,Infrastructure,Ginoogaming First Nation,Assessment of the Water Distribution and Sewage Collection System ,Complete,November 2019,Conduct an audit of the water distribution and sewage collection system and make a plan to address the water losses and high inflow/infiltration issues at the Ginoogaming First Nation.,Ensure that untreated wastewater does not enter the environment and negatively impact surrounding communities.,Thunder Bay,,,,"$56,250",,Yes,Yes,Yes,,49.733333,-86.516667,
273,Communities,Infrastructure,Ginoogaming First Nation,New and/or Replacement of Equipment for Optimizing  Ginoogaming First Nation water system.,Complete,February 2020,Purchase and install new equipment or replace equipment as needed to address the water losses and high inflow/infiltration issues to the Greenstone wastewater system.,Ensure that untreated wastewater does not enter the environment and negatively impact surrounding communities.,Thunder Bay,,,,"$31,698",,Yes,Yes,Yes,,49.733333,-86.516667,
274,Communities,Infrastructure,Gore Bay,Phipps Street Water Main Replacement and Street Reconstruction,Complete,December 2018,Replacement of the existing watermain along Phipps Street,Safer drinking water,Manitoulin,Phipps St,,,"$1,512,967",Yes,Yes,,,,45.91466,-82.465258,
275,Communities,Infrastructure,Gore Bay,Replacement Eleanor Street Watermain,Complete,July 2018,Replace the watermain on Eleanor Street from Phipps Street to Laird Street. ,Increased security of supply for 8 households and of the overall distribution system for approximately 26 homes. ,Manitoulin,7 Eleanor Street,P0P 1H0,,"$159,099",Yes,Yes,Yes,Yes,,45.916405,-82.466286,
276,Communities,Infrastructure,Gore Bay,New Street Water System Rehabilitation,Complete,October 2019,"Reconstruction of New Street, between Main Street and Hall Street.",Safer drinking water,Manitoulin,,,,"$1,822,500",Yes,Yes,,,,45.913,-82.467,
277,Communities,Infrastructure,Grassy Narrows First Nations,Wastewater System Assessment and ,Complete,June 2022,Conduct a detailed assessment of the communal wastewater collection system at Grassy Narrows First Nation to identify all existing deficiencies as well as provide upgrade alternatives and future recommendations that will be essential to providing adequate wastewater services to the community. ,,,,,,"$127,350",,Yes,Yes,Yes,,50.152991,-93.990139,
278,Communities,Infrastructure,Grassy Narrows First Nations,Replacement of Failing Sewage Pumping Stations,Planning,2023,"The project will replace failing sewage pumps in the Grassy Narrows First Nation. The work will involve the decommissioning and replacement five (5) failing sewage pumping stations with new equipment and installing new process piping, fittings, valves and associated components for each station.",,,General Delivery,P0X1B0,,0,Yes,Yes,Yes,,,50.149086,-94.003087,
279,Communities,Infrastructure,Greater Sudbury,Upgrade to main water line in Coniston,Complete,March 2019,Upgrade of the main water line on 1st Avenue. ,Improved water flow and pressure.,Sudbury,40 1st Avenue,P0M 1M0,,"$2,902,500",Yes,Yes,Yes,,,46.4896,-80.8486,
280,Communities,Infrastructure,Greater Sudbury,Upgrade of watermain water line ,Complete,March 2019,Replace the deteriorating main water line on Spruce Street. ,Improved water volumes and pressure.,Sudbury,501 Spruce Street,P3C 1P3,,"$3,306,903",Yes,Yes,Yes,,,46.620339,-81.419405,
281,Communities,Infrastructure,Greater Sudbury,Watermain Lining,Complete,September 2018,Lining the watermain line on York Street from Regent Street to Paris Street.,Fewer watermain breaks.,Sudbury,203 York Street,P3E 2A2,,"$374,887",Yes,Yes,Yes,,,46.475505,-81.010938,
282,Communities,Infrastructure,Greater Sudbury,Watermain Lining,Complete,September 2018,Lining the watermain line on Strathmere Court from Robinson Drive East to Robinson Drive West.,Fewer watermain breaks.,Sudbury,81 Strathmere Court,P3E 2J8,,"$187,500",Yes,Yes,Yes,,,46.463151,-81.021527,
283,Communities,Infrastructure,Greater Sudbury,Sewer Main Lining,Complete,March 2019,Lining the sewer line on Strathmere Court - Robinson Drive East to Robinson Drive West.,Fewer watermain breaks.,Sudbury,81 Strathmere Court,P3E 2J8,,"$75,000",Yes,Yes,Yes,,,46.463151,-81.021527,
284,Communities,Infrastructure,Greater Sudbury,Sewer Main Lining,Complete,September 2018,Lining the sewer line York Street - Regent Street to Paris Street.,Fewer watermain breaks.,Sudbury,203 York Street,P3E 2A2,,"$79,734",Yes,Yes,Yes,,,46.475505,-81.010938,
285,Communities,Infrastructure,Greater Sudbury,Stormwater Asset Management Plan,Complete,September 2020,Develop a stormwater asset management plan.,"The plan will be used to maintain current assets, identify capacity for growth and detail the deficiencies in existing water basin studies.",Sudbury,200 Brady Street,P3A 5P3,,"$296,896",Yes,Yes,Yes,,,46.490055,-80.990356,
286,Communities,Infrastructure,Greater Sudbury,David Street - Storm Water Outlet Management Station,Complete,December 2019,Design and construct a new storm water management station to replace the existing undersized station.,,Sudbury,70 David Street,P3E 1T1,,"$1,199,673",Yes,Yes,Yes,,,46.577364,-81.206873,
287,Communities,Infrastructure,Greater Sudbury,Roof Hatch (2) and Flooring Upgrade,Planning,2022,Increase clients' safe use of the community centre Increase safe accessibility to the Centre's 3 levelsIncrease safe access and security to roof Increase healthy environment and temperature at the Centre during summerMake spaces more accessible to wheel-chairs & other mobility devicesRemove outdated roof hatch and install a new up-to-date roof hatch and secure accessReplace old flooring with ceramic tiles on the second floor that is highly used by all clients (including people using mobility devices) of the CentreOutputs will include an increase of approximately 300 Indigenous community members utilizing the N'Swakamok Native Friendship Centre during the summer because it will provide a healthier and more comfortable space to deliver programs.  There will also be an increase of approximately 50 seniors and younger people with mobility devices accessing the Centre because it is easier for them to navigate throughout the second floor.,,Sudbury,110 Elm Street,P3C1T5,,0,Yes,Yes,Yes,Yes,,46.4934,-80.999,
288,Communities,Infrastructure,Greenstone,Geraldton Ward Waterline Rehabilitation ,Complete,June 2017,"Remove iron carbuncles and other contaminants, and reline 1.4 km of deteriorating water lines","Improved health and safety for area residents by providing clean drinking water, and reduced maintenance costs.",Thunder Bay,,,,"$334,966",Yes,Yes,Yes,,,49.713499,-86.951628,
289,Communities,Infrastructure,Greenstone,Longlac Ward Albany Place Watermain Replacement        ,Complete,July 2017,"Replace approximately 100 meters of deteriorated cast iron pipe with 6"""" Polyvinyl Chloride (PVC) pipe and tie it into another 6"""" line to allow for flow.   ",Better water service to 11 households.,Thunder Bay,108 Albany Place - Longlac Ward,,,"$47,789",Yes,Yes,Yes,,,49.777917,-86.533684,
290,Communities,Infrastructure,Greenstone,Geraldton Water Line Rehabilitation,Complete,September 2017,Rehabilitation of waterlines in the municipal drinking water distribution system.,Safer drinking water,Thunder Bay,4th Ave. SW,P0T 1M0,,"$1,100,000",Yes,Yes,Yes,,,49.724,-86.953,
291,Communities,Infrastructure,Greenstone,Picnic Point Pump Station Upgrades and Forcemain Enlargement,Complete,June 2018,Upgrades to the Picnic Point Pumping Station.,Minimized risk of contamination,Thunder Bay,Picnic Point Rd,,,"$990,000",Yes,Yes,,,,49.769894,-86.546328,
292,Communities,Infrastructure,Hallebourg Local services board,Hallebourg Water System Improvements ,Complete,October 2017,Improvements to the water treatment system.,Minimized risk of contamination,Cochrane,44 Jacques St,P0L 1L0,,"$210,510",,Yes,,Yes,,49.666357,-83.51836,
293,Communities,Infrastructure,Hearst,Upgrade 10th Street pumping station ,Complete,March 2019,"Install an alternate power source  back-up generator, along with related electrical and natural gas supply requirements. ",Prevent the spilling of raw sewage into the Mattawishkwia River. ,Cochrane,,,,"$138,750",Yes,Yes,Yes,,,49.684683,-83.668783,
294,Communities,Infrastructure,Hearst,Replace pumps at the Hearst Water Treatment Plant ,Complete,March 2018,Replace the existing three pumps with pumps equipped with variable frequency drives.,Reduced operating costs and energy consumption.,Cochrane,1215 Edward St,P0L 1N0,,"$48,750",Yes,Yes,Yes,,,49.686181,-83.674406,
295,Communities,Infrastructure,Hearst,Installation of ultraviolet technology at Hearst's water treatment plant,Complete,March 2018,Install an ultraviolet total organic compound measuring instrument at the Heart water treatment plant.,Improved efficiency. ,Cochrane,1216 Edward St,P0L 1N1,,"$21,750",Yes,Yes,Yes,,,49.686181,-83.674406,
296,Communities,Infrastructure,Hearst,Hearst Wastewater Treatment Lagoons (cell #1) ,Complete,November 2018,"Remove approximately 22,000 cubic meters of accumulated sludge from the Hearst wastewater treatment lagoon cell #1.",,Cochrane,,,,"$164,768",Yes,Yes,Yes,,,49.6675,-83.660667,
297,Communities,Infrastructure,Hearst,Re-roofing of Fifth Street Pumping Station Building,Complete,September 2017,Re-roof the Fifth Street pumping station building.,,Cochrane,,,,"$9,975",Yes,Yes,Yes,,,49.682864,-83.656725,
